header: 
  seq: 1
  stamp: 
    secs: 1665451885
    nsecs: 999161571
  frame_id: "/map"
x: [0.0, 0.0, 4.224058628082275, 2.320756196975708, 3.747251272201538]
y: [1.5, -1.5, -3.258223056793213, -0.7056558132171631, 0.7672300934791565]
colour: [ORANGE, ORANGE, YELLOW, YELLOW, BLUE]
frame_id: ''
---
header: 
  seq: 2
  stamp: 
    secs: 1665451885
    nsecs: 999161571
  frame_id: "/map"
x: [0.0, 0.0, 4.224058628082275, 2.320756196975708, 3.747251272201538, 2.366133213043213]
y: [1.5, -1.5, -3.258223056793213, -0.7056558132171631, 0.7672300934791565, 0.6943896412849426]
colour: [ORANGE, ORANGE, YELLOW, YELLOW, BLUE, BLUE]
frame_id: ''
---
header: 
  seq: 3
  stamp: 
    secs: 1665451885
    nsecs: 999161571
  frame_id: "/map"
x: [0.0, 0.0, 4.224058628082275, 2.320756196975708, 3.747251272201538, 2.366133213043213, 3.557234764099121]
y: [1.5, -1.5, -3.258223056793213, -0.7056558132171631, 0.7672300934791565, 0.6943896412849426, -0.7919192314147949]
colour: [ORANGE, ORANGE, YELLOW, YELLOW, BLUE, BLUE, YELLOW]
frame_id: ''
---
header: 
  seq: 4
  stamp: 
    secs: 1665451897
    nsecs:  90496104
  frame_id: "/map"
x: [0.0, 0.0, 4.224058628082275, 2.320756196975708, 3.747251272201538, 2.366133213043213, 3.557234764099121, 1.16048002243042]
y: [1.5, -1.5, -3.258223056793213, -0.7056558132171631, 0.7672300934791565, 0.6943896412849426, -0.7919192314147949, -0.9524957537651062]
colour: [ORANGE, ORANGE, YELLOW, YELLOW, BLUE, BLUE, YELLOW, YELLOW]
frame_id: ''
---
header: 
  seq: 5
  stamp: 
    secs: 1665451907
    nsecs:  18318607
  frame_id: "/map"
x: [0.0, 0.0, 4.224058628082275, 2.320756196975708, 3.747251272201538, 2.366133213043213, 3.557234764099121, 1.16048002243042, 4.992173671722412]
y: [1.5, -1.5, -3.258223056793213, -0.7056558132171631, 0.7672300934791565, 0.6943896412849426, -0.7919192314147949, -0.9524957537651062, 0.6578618288040161]
colour: [ORANGE, ORANGE, YELLOW, YELLOW, BLUE, BLUE, YELLOW, YELLOW, BLUE]
frame_id: ''
---
header: 
  seq: 6
  stamp: 
    secs: 1665451907
    nsecs: 692813295
  frame_id: "/map"
x: [0.0, 0.0, 4.224058628082275, 2.320756196975708, 3.747251272201538, 2.366133213043213, 3.557234764099121, 1.16048002243042, 4.992173671722412, 5.056729316711426]
y: [1.5, -1.5, -3.258223056793213, -0.7056558132171631, 0.7672300934791565, 0.6943896412849426, -0.7919192314147949, -0.9524957537651062, 0.6578618288040161, -1.674356460571289]
colour: [ORANGE, ORANGE, YELLOW, YELLOW, BLUE, BLUE, YELLOW, YELLOW, BLUE, YELLOW]
frame_id: ''
---
header: 
  seq: 7
  stamp: 
    secs: 1665451910
    nsecs: 824615873
  frame_id: "/map"
x: [0.0, 0.0, 4.224058628082275, 2.320756196975708, 3.747251272201538, 2.366133213043213, 3.557234764099121, 1.16048002243042, 4.992173671722412, 5.056729316711426, 5.902698516845703]
y: [1.5, -1.5, -3.258223056793213, -0.7056558132171631, 0.7672300934791565, 0.6943896412849426, -0.7919192314147949, -0.9524957537651062, 0.6578618288040161, -1.674356460571289, -3.107438087463379]
colour: [ORANGE, ORANGE, YELLOW, YELLOW, BLUE, BLUE, YELLOW, YELLOW, BLUE, YELLOW, YELLOW]
frame_id: ''
---
header: 
  seq: 8
  stamp: 
    secs: 1665451911
    nsecs: 611802330
  frame_id: "/map"
x: [0.0, 0.0, 4.224058628082275, 2.320756196975708, 3.747251272201538, 2.366133213043213, 3.557234764099121, 1.16048002243042, 4.992173671722412, 5.056729316711426, 5.902698516845703, 6.323231220245361]
y: [1.5, -1.5, -3.258223056793213, -0.7056558132171631, 0.7672300934791565, 0.6943896412849426, -0.7919192314147949, -0.9524957537651062, 0.6578618288040161, -1.674356460571289, -3.107438087463379, 0.23815907537937164]
colour: [ORANGE, ORANGE, YELLOW, YELLOW, BLUE, BLUE, YELLOW, YELLOW, BLUE, YELLOW, YELLOW,
  BLUE]
frame_id: ''
---
header: 
  seq: 9
  stamp: 
    secs: 1665451912
    nsecs:   3611726
  frame_id: "/map"
x: [0.0, 0.0, 4.224058628082275, 2.320756196975708, 3.747251272201538, 2.366133213043213, 3.557234764099121, 1.16048002243042, 4.992173671722412, 5.056729316711426, 5.902698516845703, 6.323231220245361, 6.857894420623779]
y: [1.5, -1.5, -3.258223056793213, -0.7056558132171631, 0.7672300934791565, 0.6943896412849426, -0.7919192314147949, -0.9524957537651062, 0.6578618288040161, -1.674356460571289, -3.107438087463379, 0.23815907537937164, -0.7652291655540466]
colour: [ORANGE, ORANGE, YELLOW, YELLOW, BLUE, BLUE, YELLOW, YELLOW, BLUE, YELLOW, YELLOW,
  BLUE, BLUE]
frame_id: ''
---
header: 
  seq: 10
  stamp: 
    secs: 1665451915
    nsecs: 404675669
  frame_id: "/map"
x: [0.0, 0.0, 4.224058628082275, 2.320756196975708, 3.747251272201538, 2.366133213043213, 3.557234764099121, 1.16048002243042, 4.992173671722412, 5.056729316711426, 5.902698516845703, 6.323231220245361, 6.857894420623779, 7.974014759063721]
y: [1.5, -1.5, -3.258223056793213, -0.7056558132171631, 0.7672300934791565, 0.6943896412849426, -0.7919192314147949, -0.9524957537651062, 0.6578618288040161, -1.674356460571289, -3.107438087463379, 0.23815907537937164, -0.7652291655540466, -1.9887607097625732]
colour: [ORANGE, ORANGE, YELLOW, YELLOW, BLUE, BLUE, YELLOW, YELLOW, BLUE, YELLOW, YELLOW,
  BLUE, BLUE, BLUE]
frame_id: ''
---
header: 
  seq: 11
  stamp: 
    secs: 1665451915
    nsecs: 404675669
  frame_id: "/map"
x: [0.0, 0.0, 4.224058628082275, 2.320756196975708, 3.747251272201538, 2.366133213043213, 3.557234764099121, 1.16048002243042, 4.992173671722412, 5.056729316711426, 5.902698516845703, 6.323231220245361, 6.857894420623779, 7.974014759063721, 6.069197177886963]
y: [1.5, -1.5, -3.258223056793213, -0.7056558132171631, 0.7672300934791565, 0.6943896412849426, -0.7919192314147949, -0.9524957537651062, 0.6578618288040161, -1.674356460571289, -3.107438087463379, 0.23815907537937164, -0.7652291655540466, -1.9887607097625732, -1.693998098373413]
colour: [ORANGE, ORANGE, YELLOW, YELLOW, BLUE, BLUE, YELLOW, YELLOW, BLUE, YELLOW, YELLOW,
  BLUE, BLUE, BLUE, YELLOW]
frame_id: ''
---
header: 
  seq: 12
  stamp: 
    secs: 1665451917
    nsecs: 489847304
  frame_id: "/map"
x: [0.0, 0.0, 4.224058628082275, 2.320756196975708, 3.747251272201538, 2.366133213043213, 3.557234764099121, 1.16048002243042, 4.992173671722412, 5.056729316711426, 5.902698516845703, 6.323231220245361, 6.857894420623779, 7.974014759063721, 6.069197177886963, 8.008621215820312]
y: [1.5, -1.5, -3.258223056793213, -0.7056558132171631, 0.7672300934791565, 0.6943896412849426, -0.7919192314147949, -0.9524957537651062, 0.6578618288040161, -1.674356460571289, -3.107438087463379, 0.23815907537937164, -0.7652291655540466, -1.9887607097625732, -1.693998098373413, -0.9331079125404358]
colour: [ORANGE, ORANGE, YELLOW, YELLOW, BLUE, BLUE, YELLOW, YELLOW, BLUE, YELLOW, YELLOW,
  BLUE, BLUE, BLUE, YELLOW, BLUE]
frame_id: ''
---
header: 
  seq: 13
  stamp: 
    secs: 1665451918
    nsecs: 793201533
  frame_id: "/map"
x: [0.0, 0.0, 4.224058628082275, 2.320756196975708, 3.747251272201538, 2.366133213043213, 3.557234764099121, 1.16048002243042, 4.992173671722412, 5.056729316711426, 5.902698516845703, 6.323231220245361, 6.857894420623779, 7.974014759063721, 6.069197177886963, 8.008621215820312, 9.163385391235352]
y: [1.5, -1.5, -3.258223056793213, -0.7056558132171631, 0.7672300934791565, 0.6943896412849426, -0.7919192314147949, -0.9524957537651062, 0.6578618288040161, -1.674356460571289, -3.107438087463379, 0.23815907537937164, -0.7652291655540466, -1.9887607097625732, -1.693998098373413, -0.9331079125404358, -2.4445323944091797]
colour: [ORANGE, ORANGE, YELLOW, YELLOW, BLUE, BLUE, YELLOW, YELLOW, BLUE, YELLOW, YELLOW,
  BLUE, BLUE, BLUE, YELLOW, BLUE, BLUE]
frame_id: ''
---
header: 
  seq: 14
  stamp: 
    secs: 1665451919
    nsecs: 507960395
  frame_id: "/map"
x: [0.0, 0.0, 4.224058628082275, 2.320756196975708, 3.747251272201538, 2.366133213043213, 3.557234764099121, 1.16048002243042, 4.992173671722412, 5.056729316711426, 5.902698516845703, 6.323231220245361, 6.857894420623779, 7.974014759063721, 6.069197177886963, 8.008621215820312, 9.163385391235352, 7.426914691925049]
y: [1.5, -1.5, -3.258223056793213, -0.7056558132171631, 0.7672300934791565, 0.6943896412849426, -0.7919192314147949, -0.9524957537651062, 0.6578618288040161, -1.674356460571289, -3.107438087463379, 0.23815907537937164, -0.7652291655540466, -1.9887607097625732, -1.693998098373413, -0.9331079125404358, -2.4445323944091797, 0.10776815563440323]
colour: [ORANGE, ORANGE, YELLOW, YELLOW, BLUE, BLUE, YELLOW, YELLOW, BLUE, YELLOW, YELLOW,
  BLUE, BLUE, BLUE, YELLOW, BLUE, BLUE, BLUE]
frame_id: ''
---
header: 
  seq: 15
  stamp: 
    secs: 1665451927
    nsecs: 205330170
  frame_id: "/map"
x: [0.0, 0.0, 4.224058628082275, 2.320756196975708, 3.747251272201538, 2.366133213043213, 3.557234764099121, 1.16048002243042, 4.992173671722412, 5.056729316711426, 5.902698516845703, 6.323231220245361, 6.857894420623779, 7.974014759063721, 6.069197177886963, 8.008621215820312, 9.163385391235352, 7.426914691925049, 9.127182006835938]
y: [1.5, -1.5, -3.258223056793213, -0.7056558132171631, 0.7672300934791565, 0.6943896412849426, -0.7919192314147949, -0.9524957537651062, 0.6578618288040161, -1.674356460571289, -3.107438087463379, 0.23815907537937164, -0.7652291655540466, -1.9887607097625732, -1.693998098373413, -0.9331079125404358, -2.4445323944091797, 0.10776815563440323, -5.137080192565918]
colour: [ORANGE, ORANGE, YELLOW, YELLOW, BLUE, BLUE, YELLOW, YELLOW, BLUE, YELLOW, YELLOW,
  BLUE, BLUE, BLUE, YELLOW, BLUE, BLUE, BLUE, BLUE]
frame_id: ''
---
header: 
  seq: 16
  stamp: 
    secs: 1665451927
    nsecs: 905679731
  frame_id: "/map"
x: [0.0, 0.0, 4.224058628082275, 2.320756196975708, 3.747251272201538, 2.366133213043213, 3.557234764099121, 1.16048002243042, 4.992173671722412, 5.056729316711426, 5.902698516845703, 6.323231220245361, 6.857894420623779, 7.974014759063721, 6.069197177886963, 8.008621215820312, 9.163385391235352, 7.426914691925049, 9.127182006835938, 6.429244041442871]
y: [1.5, -1.5, -3.258223056793213, -0.7056558132171631, 0.7672300934791565, 0.6943896412849426, -0.7919192314147949, -0.9524957537651062, 0.6578618288040161, -1.674356460571289, -3.107438087463379, 0.23815907537937164, -0.7652291655540466, -1.9887607097625732, -1.693998098373413, -0.9331079125404358, -2.4445323944091797, 0.10776815563440323, -5.137080192565918, -6.936516761779785]
colour: [ORANGE, ORANGE, YELLOW, YELLOW, BLUE, BLUE, YELLOW, YELLOW, BLUE, YELLOW, YELLOW,
  BLUE, BLUE, BLUE, YELLOW, BLUE, BLUE, BLUE, BLUE, BLUE]
frame_id: ''
---
header: 
  seq: 17
  stamp: 
    secs: 1665451927
    nsecs: 905679731
  frame_id: "/map"
x: [0.0, 0.0, 4.224058628082275, 2.320756196975708, 3.747251272201538, 2.366133213043213, 3.557234764099121, 1.16048002243042, 4.992173671722412, 5.056729316711426, 5.902698516845703, 6.323231220245361, 6.857894420623779, 7.974014759063721, 6.069197177886963, 8.008621215820312, 9.163385391235352, 7.426914691925049, 9.127182006835938, 6.429244041442871, 8.08627700805664]
y: [1.5, -1.5, -3.258223056793213, -0.7056558132171631, 0.7672300934791565, 0.6943896412849426, -0.7919192314147949, -0.9524957537651062, 0.6578618288040161, -1.674356460571289, -3.107438087463379, 0.23815907537937164, -0.7652291655540466, -1.9887607097625732, -1.693998098373413, -0.9331079125404358, -2.4445323944091797, 0.10776815563440323, -5.137080192565918, -6.936516761779785, -6.189460277557373]
colour: [ORANGE, ORANGE, YELLOW, YELLOW, BLUE, BLUE, YELLOW, YELLOW, BLUE, YELLOW, YELLOW,
  BLUE, BLUE, BLUE, YELLOW, BLUE, BLUE, BLUE, BLUE, BLUE, BLUE]
frame_id: ''
---
header: 
  seq: 18
  stamp: 
    secs: 1665451928
    nsecs: 601829233
  frame_id: "/map"
x: [0.0, 0.0, 4.224058628082275, 2.320756196975708, 3.747251272201538, 2.366133213043213, 3.557234764099121, 1.16048002243042, 4.992173671722412, 5.056729316711426, 5.902698516845703, 6.323231220245361, 6.857894420623779, 7.974014759063721, 6.069197177886963, 8.008621215820312, 9.163385391235352, 7.426914691925049, 9.127182006835938, 6.429244041442871, 8.08627700805664, 8.518656730651855]
y: [1.5, -1.5, -3.258223056793213, -0.7056558132171631, 0.7672300934791565, 0.6943896412849426, -0.7919192314147949, -0.9524957537651062, 0.6578618288040161, -1.674356460571289, -3.107438087463379, 0.23815907537937164, -0.7652291655540466, -1.9887607097625732, -1.693998098373413, -0.9331079125404358, -2.4445323944091797, 0.10776815563440323, -5.137080192565918, -6.936516761779785, -6.189460277557373, -4.021170616149902]
colour: [ORANGE, ORANGE, YELLOW, YELLOW, BLUE, BLUE, YELLOW, YELLOW, BLUE, YELLOW, YELLOW,
  BLUE, BLUE, BLUE, YELLOW, BLUE, BLUE, BLUE, BLUE, BLUE, BLUE, BLUE]
frame_id: ''
---
header: 
  seq: 19
  stamp: 
    secs: 1665451928
    nsecs: 601829233
  frame_id: "/map"
x: [0.0, 0.0, 4.224058628082275, 2.320756196975708, 3.747251272201538, 2.366133213043213, 3.557234764099121, 1.16048002243042, 4.992173671722412, 5.056729316711426, 5.902698516845703, 6.323231220245361, 6.857894420623779, 7.974014759063721, 6.069197177886963, 8.008621215820312, 9.163385391235352, 7.426914691925049, 9.127182006835938, 6.429244041442871, 8.08627700805664, 8.518656730651855, 6.731572151184082]
y: [1.5, -1.5, -3.258223056793213, -0.7056558132171631, 0.7672300934791565, 0.6943896412849426, -0.7919192314147949, -0.9524957537651062, 0.6578618288040161, -1.674356460571289, -3.107438087463379, 0.23815907537937164, -0.7652291655540466, -1.9887607097625732, -1.693998098373413, -0.9331079125404358, -2.4445323944091797, 0.10776815563440323, -5.137080192565918, -6.936516761779785, -6.189460277557373, -4.021170616149902, -5.148203372955322]
colour: [ORANGE, ORANGE, YELLOW, YELLOW, BLUE, BLUE, YELLOW, YELLOW, BLUE, YELLOW, YELLOW,
  BLUE, BLUE, BLUE, YELLOW, BLUE, BLUE, BLUE, BLUE, BLUE, BLUE, BLUE, BLUE]
frame_id: ''
---
header: 
  seq: 20
  stamp: 
    secs: 1665451928
    nsecs: 601829233
  frame_id: "/map"
x: [0.0, 0.0, 4.224058628082275, 2.320756196975708, 3.747251272201538, 2.366133213043213, 3.557234764099121, 1.16048002243042, 4.992173671722412, 5.056729316711426, 5.902698516845703, 6.323231220245361, 6.857894420623779, 7.974014759063721, 6.069197177886963, 8.008621215820312, 9.163385391235352, 7.426914691925049, 9.127182006835938, 6.429244041442871, 8.08627700805664, 8.518656730651855, 6.731572151184082, 7.770135879516602]
y: [1.5, -1.5, -3.258223056793213, -0.7056558132171631, 0.7672300934791565, 0.6943896412849426, -0.7919192314147949, -0.9524957537651062, 0.6578618288040161, -1.674356460571289, -3.107438087463379, 0.23815907537937164, -0.7652291655540466, -1.9887607097625732, -1.693998098373413, -0.9331079125404358, -2.4445323944091797, 0.10776815563440323, -5.137080192565918, -6.936516761779785, -6.189460277557373, -4.021170616149902, -5.148203372955322, -4.7761945724487305]
colour: [ORANGE, ORANGE, YELLOW, YELLOW, BLUE, BLUE, YELLOW, YELLOW, BLUE, YELLOW, YELLOW,
  BLUE, BLUE, BLUE, YELLOW, BLUE, BLUE, BLUE, BLUE, BLUE, BLUE, BLUE, BLUE, BLUE]
frame_id: ''
---
header: 
  seq: 21
  stamp: 
    secs: 1665451930
    nsecs: 706204771
  frame_id: "/map"
x: [0.0, 0.0, 4.224058628082275, 2.320756196975708, 3.747251272201538, 2.366133213043213, 3.557234764099121, 1.16048002243042, 4.992173671722412, 5.056729316711426, 5.902698516845703, 6.323231220245361, 6.857894420623779, 7.974014759063721, 6.069197177886963, 8.008621215820312, 9.163385391235352, 7.426914691925049, 9.127182006835938, 6.429244041442871, 8.08627700805664, 8.518656730651855, 6.731572151184082, 7.770135879516602, 5.154035568237305]
y: [1.5, -1.5, -3.258223056793213, -0.7056558132171631, 0.7672300934791565, 0.6943896412849426, -0.7919192314147949, -0.9524957537651062, 0.6578618288040161, -1.674356460571289, -3.107438087463379, 0.23815907537937164, -0.7652291655540466, -1.9887607097625732, -1.693998098373413, -0.9331079125404358, -2.4445323944091797, 0.10776815563440323, -5.137080192565918, -6.936516761779785, -6.189460277557373, -4.021170616149902, -5.148203372955322, -4.7761945724487305, -5.24736213684082]
colour: [ORANGE, ORANGE, YELLOW, YELLOW, BLUE, BLUE, YELLOW, YELLOW, BLUE, YELLOW, YELLOW,
  BLUE, BLUE, BLUE, YELLOW, BLUE, BLUE, BLUE, BLUE, BLUE, BLUE, BLUE, BLUE, BLUE,
  BLUE]
frame_id: ''
---
header: 
  seq: 22
  stamp: 
    secs: 1665451932
    nsecs: 700383350
  frame_id: "/map"
x: [0.0, 0.0, 4.224058628082275, 2.320756196975708, 3.747251272201538, 2.366133213043213, 3.557234764099121, 1.16048002243042, 4.992173671722412, 5.056729316711426, 5.902698516845703, 6.323231220245361, 6.857894420623779, 7.974014759063721, 6.069197177886963, 8.008621215820312, 9.163385391235352, 7.426914691925049, 9.127182006835938, 6.429244041442871, 8.08627700805664, 8.518656730651855, 6.731572151184082, 7.770135879516602, 5.154035568237305, 2.991966962814331]
y: [1.5, -1.5, -3.258223056793213, -0.7056558132171631, 0.7672300934791565, 0.6943896412849426, -0.7919192314147949, -0.9524957537651062, 0.6578618288040161, -1.674356460571289, -3.107438087463379, 0.23815907537937164, -0.7652291655540466, -1.9887607097625732, -1.693998098373413, -0.9331079125404358, -2.4445323944091797, 0.10776815563440323, -5.137080192565918, -6.936516761779785, -6.189460277557373, -4.021170616149902, -5.148203372955322, -4.7761945724487305, -5.24736213684082, -5.200987815856934]
colour: [ORANGE, ORANGE, YELLOW, YELLOW, BLUE, BLUE, YELLOW, YELLOW, BLUE, YELLOW, YELLOW,
  BLUE, BLUE, BLUE, YELLOW, BLUE, BLUE, BLUE, BLUE, BLUE, BLUE, BLUE, BLUE, BLUE,
  BLUE, BLUE]
frame_id: ''
---
header: 
  seq: 23
  stamp: 
    secs: 1665451934
    nsecs: 105299177
  frame_id: "/map"
x: [0.0, 0.0, 4.224058628082275, 2.320756196975708, 3.747251272201538, 2.366133213043213, 3.557234764099121, 1.16048002243042, 4.992173671722412, 5.056729316711426, 5.902698516845703, 6.323231220245361, 6.857894420623779, 7.974014759063721, 6.069197177886963, 8.008621215820312, 9.163385391235352, 7.426914691925049, 9.127182006835938, 6.429244041442871, 8.08627700805664, 8.518656730651855, 6.731572151184082, 7.770135879516602, 5.154035568237305, 2.991966962814331, 1.3191579580307007]
y: [1.5, -1.5, -3.258223056793213, -0.7056558132171631, 0.7672300934791565, 0.6943896412849426, -0.7919192314147949, -0.9524957537651062, 0.6578618288040161, -1.674356460571289, -3.107438087463379, 0.23815907537937164, -0.7652291655540466, -1.9887607097625732, -1.693998098373413, -0.9331079125404358, -2.4445323944091797, 0.10776815563440323, -5.137080192565918, -6.936516761779785, -6.189460277557373, -4.021170616149902, -5.148203372955322, -4.7761945724487305, -5.24736213684082, -5.200987815856934, -5.129555702209473]
colour: [ORANGE, ORANGE, YELLOW, YELLOW, BLUE, BLUE, YELLOW, YELLOW, BLUE, YELLOW, YELLOW,
  BLUE, BLUE, BLUE, YELLOW, BLUE, BLUE, BLUE, BLUE, BLUE, BLUE, BLUE, BLUE, BLUE,
  BLUE, BLUE, BLUE]
frame_id: ''
---
header: 
  seq: 24
  stamp: 
    secs: 1665451936
    nsecs: 130440547
  frame_id: "/map"
x: [0.0, 0.0, 4.224058628082275, 2.320756196975708, 3.747251272201538, 2.366133213043213, 3.557234764099121, 1.16048002243042, 4.992173671722412, 5.056729316711426, 5.902698516845703, 6.323231220245361, 6.857894420623779, 7.974014759063721, 6.069197177886963, 8.008621215820312, 9.163385391235352, 7.426914691925049, 9.127182006835938, 6.429244041442871, 8.08627700805664, 8.518656730651855, 6.731572151184082, 7.770135879516602, 5.154035568237305, 2.991966962814331, 1.3191579580307007, 3.2511823177337646]
y: [1.5, -1.5, -3.258223056793213, -0.7056558132171631, 0.7672300934791565, 0.6943896412849426, -0.7919192314147949, -0.9524957537651062, 0.6578618288040161, -1.674356460571289, -3.107438087463379, 0.23815907537937164, -0.7652291655540466, -1.9887607097625732, -1.693998098373413, -0.9331079125404358, -2.4445323944091797, 0.10776815563440323, -5.137080192565918, -6.936516761779785, -6.189460277557373, -4.021170616149902, -5.148203372955322, -4.7761945724487305, -5.24736213684082, -5.200987815856934, -5.129555702209473, -3.5905768871307373]
colour: [ORANGE, ORANGE, YELLOW, YELLOW, BLUE, BLUE, YELLOW, YELLOW, BLUE, YELLOW, YELLOW,
  BLUE, BLUE, BLUE, YELLOW, BLUE, BLUE, BLUE, BLUE, BLUE, BLUE, BLUE, BLUE, BLUE,
  BLUE, BLUE, BLUE, YELLOW]
frame_id: ''
---
header: 
  seq: 25
  stamp: 
    secs: 1665451937
    nsecs:   3053481
  frame_id: "/map"
x: [0.0, 0.0, 4.224058628082275, 2.320756196975708, 3.747251272201538, 2.366133213043213, 3.557234764099121, 1.16048002243042, 4.992173671722412, 5.056729316711426, 5.902698516845703, 6.323231220245361, 6.857894420623779, 7.974014759063721, 6.069197177886963, 8.008621215820312, 9.163385391235352, 7.426914691925049, 9.127182006835938, 6.429244041442871, 8.08627700805664, 8.518656730651855, 6.731572151184082, 7.770135879516602, 5.154035568237305, 2.991966962814331, 1.3191579580307007, 3.2511823177337646, 1.420651912689209]
y: [1.5, -1.5, -3.258223056793213, -0.7056558132171631, 0.7672300934791565, 0.6943896412849426, -0.7919192314147949, -0.9524957537651062, 0.6578618288040161, -1.674356460571289, -3.107438087463379, 0.23815907537937164, -0.7652291655540466, -1.9887607097625732, -1.693998098373413, -0.9331079125404358, -2.4445323944091797, 0.10776815563440323, -5.137080192565918, -6.936516761779785, -6.189460277557373, -4.021170616149902, -5.148203372955322, -4.7761945724487305, -5.24736213684082, -5.200987815856934, -5.129555702209473, -3.5905768871307373, -3.2531590461730957]
colour: [ORANGE, ORANGE, YELLOW, YELLOW, BLUE, BLUE, YELLOW, YELLOW, BLUE, YELLOW, YELLOW,
  BLUE, BLUE, BLUE, YELLOW, BLUE, BLUE, BLUE, BLUE, BLUE, BLUE, BLUE, BLUE, BLUE,
  BLUE, BLUE, BLUE, YELLOW, YELLOW]
frame_id: ''
---
header: 
  seq: 26
  stamp: 
    secs: 1665451939
    nsecs: 914796797
  frame_id: "/map"
x: [0.0, 0.0, 4.224058628082275, 2.320756196975708, 3.747251272201538, 2.366133213043213, 3.557234764099121, 1.16048002243042, 4.992173671722412, 5.056729316711426, 5.902698516845703, 6.323231220245361, 6.857894420623779, 7.974014759063721, 6.069197177886963, 8.008621215820312, 9.163385391235352, 7.426914691925049, 9.127182006835938, 6.429244041442871, 8.08627700805664, 8.518656730651855, 6.731572151184082, 7.770135879516602, 5.154035568237305, 2.991966962814331, 1.3191579580307007, 3.2511823177337646, 1.420651912689209, -0.2508825659751892]
y: [1.5, -1.5, -3.258223056793213, -0.7056558132171631, 0.7672300934791565, 0.6943896412849426, -0.7919192314147949, -0.9524957537651062, 0.6578618288040161, -1.674356460571289, -3.107438087463379, 0.23815907537937164, -0.7652291655540466, -1.9887607097625732, -1.693998098373413, -0.9331079125404358, -2.4445323944091797, 0.10776815563440323, -5.137080192565918, -6.936516761779785, -6.189460277557373, -4.021170616149902, -5.148203372955322, -4.7761945724487305, -5.24736213684082, -5.200987815856934, -5.129555702209473, -3.5905768871307373, -3.2531590461730957, -5.2328996658325195]
colour: [ORANGE, ORANGE, YELLOW, YELLOW, BLUE, BLUE, YELLOW, YELLOW, BLUE, YELLOW, YELLOW,
  BLUE, BLUE, BLUE, YELLOW, BLUE, BLUE, BLUE, BLUE, BLUE, BLUE, BLUE, BLUE, BLUE,
  BLUE, BLUE, BLUE, YELLOW, YELLOW, BLUE]
frame_id: ''
---
header: 
  seq: 27
  stamp: 
    secs: 1665451939
    nsecs: 914796797
  frame_id: "/map"
x: [0.0, 0.0, 4.224058628082275, 2.320756196975708, 3.747251272201538, 2.366133213043213, 3.557234764099121, 1.16048002243042, 4.992173671722412, 5.056729316711426, 5.902698516845703, 6.323231220245361, 6.857894420623779, 7.974014759063721, 6.069197177886963, 8.008621215820312, 9.163385391235352, 7.426914691925049, 9.127182006835938, 6.429244041442871, 8.08627700805664, 8.518656730651855, 6.731572151184082, 7.770135879516602, 5.154035568237305, 2.991966962814331, 1.3191579580307007, 3.2511823177337646, 1.420651912689209, -0.2508825659751892, -0.5096340775489807]
y: [1.5, -1.5, -3.258223056793213, -0.7056558132171631, 0.7672300934791565, 0.6943896412849426, -0.7919192314147949, -0.9524957537651062, 0.6578618288040161, -1.674356460571289, -3.107438087463379, 0.23815907537937164, -0.7652291655540466, -1.9887607097625732, -1.693998098373413, -0.9331079125404358, -2.4445323944091797, 0.10776815563440323, -5.137080192565918, -6.936516761779785, -6.189460277557373, -4.021170616149902, -5.148203372955322, -4.7761945724487305, -5.24736213684082, -5.200987815856934, -5.129555702209473, -3.5905768871307373, -3.2531590461730957, -5.2328996658325195, -3.269895076751709]
colour: [ORANGE, ORANGE, YELLOW, YELLOW, BLUE, BLUE, YELLOW, YELLOW, BLUE, YELLOW, YELLOW,
  BLUE, BLUE, BLUE, YELLOW, BLUE, BLUE, BLUE, BLUE, BLUE, BLUE, BLUE, BLUE, BLUE,
  BLUE, BLUE, BLUE, YELLOW, YELLOW, BLUE, YELLOW]
frame_id: ''
---
header: 
  seq: 28
  stamp: 
    secs: 1665451943
    nsecs: 165587610
  frame_id: "/map"
x: [0.0, 0.0, 4.224058628082275, 2.320756196975708, 3.747251272201538, 2.366133213043213, 3.557234764099121, 1.16048002243042, 4.992173671722412, 5.056729316711426, 5.902698516845703, 6.323231220245361, 6.857894420623779, 7.974014759063721, 6.069197177886963, 8.008621215820312, 9.163385391235352, 7.426914691925049, 9.127182006835938, 6.429244041442871, 8.08627700805664, 8.518656730651855, 6.731572151184082, 7.770135879516602, 5.154035568237305, 2.991966962814331, 1.3191579580307007, 3.2511823177337646, 1.420651912689209, -0.2508825659751892, -0.5096340775489807, -1.2932089567184448]
y: [1.5, -1.5, -3.258223056793213, -0.7056558132171631, 0.7672300934791565, 0.6943896412849426, -0.7919192314147949, -0.9524957537651062, 0.6578618288040161, -1.674356460571289, -3.107438087463379, 0.23815907537937164, -0.7652291655540466, -1.9887607097625732, -1.693998098373413, -0.9331079125404358, -2.4445323944091797, 0.10776815563440323, -5.137080192565918, -6.936516761779785, -6.189460277557373, -4.021170616149902, -5.148203372955322, -4.7761945724487305, -5.24736213684082, -5.200987815856934, -5.129555702209473, -3.5905768871307373, -3.2531590461730957, -5.2328996658325195, -3.269895076751709, -4.733415603637695]
colour: [ORANGE, ORANGE, YELLOW, YELLOW, BLUE, BLUE, YELLOW, YELLOW, BLUE, YELLOW, YELLOW,
  BLUE, BLUE, BLUE, YELLOW, BLUE, BLUE, BLUE, BLUE, BLUE, BLUE, BLUE, BLUE, BLUE,
  BLUE, BLUE, BLUE, YELLOW, YELLOW, BLUE, YELLOW, BLUE]
frame_id: ''
---
header: 
  seq: 29
  stamp: 
    secs: 1665451943
    nsecs: 732517113
  frame_id: "/map"
x: [0.0, 0.0, 4.224058628082275, 2.320756196975708, 3.747251272201538, 2.366133213043213, 3.557234764099121, 1.16048002243042, 4.992173671722412, 5.056729316711426, 5.902698516845703, 6.323231220245361, 6.857894420623779, 7.974014759063721, 6.069197177886963, 8.008621215820312, 9.163385391235352, 7.426914691925049, 9.127182006835938, 6.429244041442871, 8.08627700805664, 8.518656730651855, 6.731572151184082, 7.770135879516602, 5.154035568237305, 2.991966962814331, 1.3191579580307007, 3.2511823177337646, 1.420651912689209, -0.2508825659751892, -0.5096340775489807, -1.2932089567184448, -1.2265509366989136]
y: [1.5, -1.5, -3.258223056793213, -0.7056558132171631, 0.7672300934791565, 0.6943896412849426, -0.7919192314147949, -0.9524957537651062, 0.6578618288040161, -1.674356460571289, -3.107438087463379, 0.23815907537937164, -0.7652291655540466, -1.9887607097625732, -1.693998098373413, -0.9331079125404358, -2.4445323944091797, 0.10776815563440323, -5.137080192565918, -6.936516761779785, -6.189460277557373, -4.021170616149902, -5.148203372955322, -4.7761945724487305, -5.24736213684082, -5.200987815856934, -5.129555702209473, -3.5905768871307373, -3.2531590461730957, -5.2328996658325195, -3.269895076751709, -4.733415603637695, -1.6442046165466309]
colour: [ORANGE, ORANGE, YELLOW, YELLOW, BLUE, BLUE, YELLOW, YELLOW, BLUE, YELLOW, YELLOW,
  BLUE, BLUE, BLUE, YELLOW, BLUE, BLUE, BLUE, BLUE, BLUE, BLUE, BLUE, BLUE, BLUE,
  BLUE, BLUE, BLUE, YELLOW, YELLOW, BLUE, YELLOW, BLUE, YELLOW]
frame_id: ''
---
header: 
  seq: 30
  stamp: 
    secs: 1665451943
    nsecs: 732517113
  frame_id: "/map"
x: [0.0, 0.0, 4.224058628082275, 2.320756196975708, 3.747251272201538, 2.366133213043213, 3.557234764099121, 1.16048002243042, 4.992173671722412, 5.056729316711426, 5.902698516845703, 6.323231220245361, 6.857894420623779, 7.974014759063721, 6.069197177886963, 8.008621215820312, 9.163385391235352, 7.426914691925049, 9.127182006835938, 6.429244041442871, 8.08627700805664, 8.518656730651855, 6.731572151184082, 7.770135879516602, 5.154035568237305, 2.991966962814331, 1.3191579580307007, 3.2511823177337646, 1.420651912689209, -0.2508825659751892, -0.5096340775489807, -1.2932089567184448, -1.2265509366989136, -1.6347346305847168]
y: [1.5, -1.5, -3.258223056793213, -0.7056558132171631, 0.7672300934791565, 0.6943896412849426, -0.7919192314147949, -0.9524957537651062, 0.6578618288040161, -1.674356460571289, -3.107438087463379, 0.23815907537937164, -0.7652291655540466, -1.9887607097625732, -1.693998098373413, -0.9331079125404358, -2.4445323944091797, 0.10776815563440323, -5.137080192565918, -6.936516761779785, -6.189460277557373, -4.021170616149902, -5.148203372955322, -4.7761945724487305, -5.24736213684082, -5.200987815856934, -5.129555702209473, -3.5905768871307373, -3.2531590461730957, -5.2328996658325195, -3.269895076751709, -4.733415603637695, -1.6442046165466309, -2.6928985118865967]
colour: [ORANGE, ORANGE, YELLOW, YELLOW, BLUE, BLUE, YELLOW, YELLOW, BLUE, YELLOW, YELLOW,
  BLUE, BLUE, BLUE, YELLOW, BLUE, BLUE, BLUE, BLUE, BLUE, BLUE, BLUE, BLUE, BLUE,
  BLUE, BLUE, BLUE, YELLOW, YELLOW, BLUE, YELLOW, BLUE, YELLOW, YELLOW]
frame_id: ''
---
header: 
  seq: 31
  stamp: 
    secs: 1665451945
    nsecs: 461237450
  frame_id: "/map"
x: [0.0, 0.0, 4.224058628082275, 2.320756196975708, 3.747251272201538, 2.366133213043213, 3.557234764099121, 1.16048002243042, 4.992173671722412, 5.056729316711426, 5.902698516845703, 6.323231220245361, 6.857894420623779, 7.974014759063721, 6.069197177886963, 8.008621215820312, 9.163385391235352, 7.426914691925049, 9.127182006835938, 6.429244041442871, 8.08627700805664, 8.518656730651855, 6.731572151184082, 7.770135879516602, 5.154035568237305, 2.991966962814331, 1.3191579580307007, 3.2511823177337646, 1.420651912689209, -0.2508825659751892, -0.5096340775489807, -1.2932089567184448, -1.2265509366989136, -1.6347346305847168, -2.354466199874878]
y: [1.5, -1.5, -3.258223056793213, -0.7056558132171631, 0.7672300934791565, 0.6943896412849426, -0.7919192314147949, -0.9524957537651062, 0.6578618288040161, -1.674356460571289, -3.107438087463379, 0.23815907537937164, -0.7652291655540466, -1.9887607097625732, -1.693998098373413, -0.9331079125404358, -2.4445323944091797, 0.10776815563440323, -5.137080192565918, -6.936516761779785, -6.189460277557373, -4.021170616149902, -5.148203372955322, -4.7761945724487305, -5.24736213684082, -5.200987815856934, -5.129555702209473, -3.5905768871307373, -3.2531590461730957, -5.2328996658325195, -3.269895076751709, -4.733415603637695, -1.6442046165466309, -2.6928985118865967, -1.170994520187378]
colour: [ORANGE, ORANGE, YELLOW, YELLOW, BLUE, BLUE, YELLOW, YELLOW, BLUE, YELLOW, YELLOW,
  BLUE, BLUE, BLUE, YELLOW, BLUE, BLUE, BLUE, BLUE, BLUE, BLUE, BLUE, BLUE, BLUE,
  BLUE, BLUE, BLUE, YELLOW, YELLOW, BLUE, YELLOW, BLUE, YELLOW, YELLOW, YELLOW]
frame_id: ''
---
header: 
  seq: 32
  stamp: 
    secs: 1665451945
    nsecs: 461237450
  frame_id: "/map"
x: [0.0, 0.0, 4.224058628082275, 2.320756196975708, 3.747251272201538, 2.366133213043213, 3.557234764099121, 1.16048002243042, 4.992173671722412, 5.056729316711426, 5.902698516845703, 6.323231220245361, 6.857894420623779, 7.974014759063721, 6.069197177886963, 8.008621215820312, 9.163385391235352, 7.426914691925049, 9.127182006835938, 6.429244041442871, 8.08627700805664, 8.518656730651855, 6.731572151184082, 7.770135879516602, 5.154035568237305, 2.991966962814331, 1.3191579580307007, 3.2511823177337646, 1.420651912689209, -0.2508825659751892, -0.5096340775489807, -1.2932089567184448, -1.2265509366989136, -1.6347346305847168, -2.354466199874878, -2.1603660583496094]
y: [1.5, -1.5, -3.258223056793213, -0.7056558132171631, 0.7672300934791565, 0.6943896412849426, -0.7919192314147949, -0.9524957537651062, 0.6578618288040161, -1.674356460571289, -3.107438087463379, 0.23815907537937164, -0.7652291655540466, -1.9887607097625732, -1.693998098373413, -0.9331079125404358, -2.4445323944091797, 0.10776815563440323, -5.137080192565918, -6.936516761779785, -6.189460277557373, -4.021170616149902, -5.148203372955322, -4.7761945724487305, -5.24736213684082, -5.200987815856934, -5.129555702209473, -3.5905768871307373, -3.2531590461730957, -5.2328996658325195, -3.269895076751709, -4.733415603637695, -1.6442046165466309, -2.6928985118865967, -1.170994520187378, -5.497775077819824]
colour: [ORANGE, ORANGE, YELLOW, YELLOW, BLUE, BLUE, YELLOW, YELLOW, BLUE, YELLOW, YELLOW,
  BLUE, BLUE, BLUE, YELLOW, BLUE, BLUE, BLUE, BLUE, BLUE, BLUE, BLUE, BLUE, BLUE,
  BLUE, BLUE, BLUE, YELLOW, YELLOW, BLUE, YELLOW, BLUE, YELLOW, YELLOW, YELLOW, BLUE]
frame_id: ''
---
header: 
  seq: 33
  stamp: 
    secs: 1665451946
    nsecs: 605542022
  frame_id: "/map"
x: [0.0, 0.0, 4.224058628082275, 2.320756196975708, 3.747251272201538, 2.366133213043213, 3.557234764099121, 1.16048002243042, 4.992173671722412, 5.056729316711426, 5.902698516845703, 6.323231220245361, 6.857894420623779, 7.974014759063721, 6.069197177886963, 8.008621215820312, 9.163385391235352, 7.426914691925049, 9.127182006835938, 6.429244041442871, 8.08627700805664, 8.518656730651855, 6.731572151184082, 7.770135879516602, 5.154035568237305, 2.991966962814331, 1.3191579580307007, 3.2511823177337646, 1.420651912689209, -0.2508825659751892, -0.5096340775489807, -1.2932089567184448, -1.2265509366989136, -1.6347346305847168, -2.354466199874878, -2.1603660583496094, -2.9211747646331787]
y: [1.5, -1.5, -3.258223056793213, -0.7056558132171631, 0.7672300934791565, 0.6943896412849426, -0.7919192314147949, -0.9524957537651062, 0.6578618288040161, -1.674356460571289, -3.107438087463379, 0.23815907537937164, -0.7652291655540466, -1.9887607097625732, -1.693998098373413, -0.9331079125404358, -2.4445323944091797, 0.10776815563440323, -5.137080192565918, -6.936516761779785, -6.189460277557373, -4.021170616149902, -5.148203372955322, -4.7761945724487305, -5.24736213684082, -5.200987815856934, -5.129555702209473, -3.5905768871307373, -3.2531590461730957, -5.2328996658325195, -3.269895076751709, -4.733415603637695, -1.6442046165466309, -2.6928985118865967, -1.170994520187378, -5.497775077819824, -2.3931236267089844]
colour: [ORANGE, ORANGE, YELLOW, YELLOW, BLUE, BLUE, YELLOW, YELLOW, BLUE, YELLOW, YELLOW,
  BLUE, BLUE, BLUE, YELLOW, BLUE, BLUE, BLUE, BLUE, BLUE, BLUE, BLUE, BLUE, BLUE,
  BLUE, BLUE, BLUE, YELLOW, YELLOW, BLUE, YELLOW, BLUE, YELLOW, YELLOW, YELLOW, BLUE,
  YELLOW]
frame_id: ''
---
header: 
  seq: 34
  stamp: 
    secs: 1665451948
    nsecs: 892493608
  frame_id: "/map"
x: [0.0, 0.0, 4.224058628082275, 2.320756196975708, 3.747251272201538, 2.366133213043213, 3.557234764099121, 1.16048002243042, 4.992173671722412, 5.056729316711426, 5.902698516845703, 6.323231220245361, 6.857894420623779, 7.974014759063721, 6.069197177886963, 8.008621215820312, 9.163385391235352, 7.426914691925049, 9.127182006835938, 6.429244041442871, 8.08627700805664, 8.518656730651855, 6.731572151184082, 7.770135879516602, 5.154035568237305, 2.991966962814331, 1.3191579580307007, 3.2511823177337646, 1.420651912689209, -0.2508825659751892, -0.5096340775489807, -1.2932089567184448, -1.2265509366989136, -1.6347346305847168, -2.354466199874878, -2.1603660583496094, -2.9211747646331787, -3.524641752243042]
y: [1.5, -1.5, -3.258223056793213, -0.7056558132171631, 0.7672300934791565, 0.6943896412849426, -0.7919192314147949, -0.9524957537651062, 0.6578618288040161, -1.674356460571289, -3.107438087463379, 0.23815907537937164, -0.7652291655540466, -1.9887607097625732, -1.693998098373413, -0.9331079125404358, -2.4445323944091797, 0.10776815563440323, -5.137080192565918, -6.936516761779785, -6.189460277557373, -4.021170616149902, -5.148203372955322, -4.7761945724487305, -5.24736213684082, -5.200987815856934, -5.129555702209473, -3.5905768871307373, -3.2531590461730957, -5.2328996658325195, -3.269895076751709, -4.733415603637695, -1.6442046165466309, -2.6928985118865967, -1.170994520187378, -5.497775077819824, -2.3931236267089844, -4.878763675689697]
colour: [ORANGE, ORANGE, YELLOW, YELLOW, BLUE, BLUE, YELLOW, YELLOW, BLUE, YELLOW, YELLOW,
  BLUE, BLUE, BLUE, YELLOW, BLUE, BLUE, BLUE, BLUE, BLUE, BLUE, BLUE, BLUE, BLUE,
  BLUE, BLUE, BLUE, YELLOW, YELLOW, BLUE, YELLOW, BLUE, YELLOW, YELLOW, YELLOW, BLUE,
  YELLOW, BLUE]
frame_id: ''
---
header: 
  seq: 35
  stamp: 
    secs: 1665451950
    nsecs: 994234124
  frame_id: "/map"
x: [0.0, 0.0, 4.224058628082275, 2.320756196975708, 3.747251272201538, 2.366133213043213, 3.557234764099121, 1.16048002243042, 4.992173671722412, 5.056729316711426, 5.902698516845703, 6.323231220245361, 6.857894420623779, 7.974014759063721, 6.069197177886963, 8.008621215820312, 9.163385391235352, 7.426914691925049, 9.127182006835938, 6.429244041442871, 8.08627700805664, 8.518656730651855, 6.731572151184082, 7.770135879516602, 5.154035568237305, 2.991966962814331, 1.3191579580307007, 3.2511823177337646, 1.420651912689209, -0.2508825659751892, -0.5096340775489807, -1.2932089567184448, -1.2265509366989136, -1.6347346305847168, -2.354466199874878, -2.1603660583496094, -2.9211747646331787, -3.524641752243042, -4.258442401885986]
y: [1.5, -1.5, -3.258223056793213, -0.7056558132171631, 0.7672300934791565, 0.6943896412849426, -0.7919192314147949, -0.9524957537651062, 0.6578618288040161, -1.674356460571289, -3.107438087463379, 0.23815907537937164, -0.7652291655540466, -1.9887607097625732, -1.693998098373413, -0.9331079125404358, -2.4445323944091797, 0.10776815563440323, -5.137080192565918, -6.936516761779785, -6.189460277557373, -4.021170616149902, -5.148203372955322, -4.7761945724487305, -5.24736213684082, -5.200987815856934, -5.129555702209473, -3.5905768871307373, -3.2531590461730957, -5.2328996658325195, -3.269895076751709, -4.733415603637695, -1.6442046165466309, -2.6928985118865967, -1.170994520187378, -5.497775077819824, -2.3931236267089844, -4.878763675689697, -3.696518659591675]
colour: [ORANGE, ORANGE, YELLOW, YELLOW, BLUE, BLUE, YELLOW, YELLOW, BLUE, YELLOW, YELLOW,
  BLUE, BLUE, BLUE, YELLOW, BLUE, BLUE, BLUE, BLUE, BLUE, BLUE, BLUE, BLUE, BLUE,
  BLUE, BLUE, BLUE, YELLOW, YELLOW, BLUE, YELLOW, BLUE, YELLOW, YELLOW, YELLOW, BLUE,
  YELLOW, BLUE, BLUE]
frame_id: ''
---
header: 
  seq: 36
  stamp: 
    secs: 1665451950
    nsecs: 994234124
  frame_id: "/map"
x: [0.0, 0.0, 4.224058628082275, 2.320756196975708, 3.747251272201538, 2.366133213043213, 3.557234764099121, 1.16048002243042, 4.992173671722412, 5.056729316711426, 5.902698516845703, 6.323231220245361, 6.857894420623779, 7.974014759063721, 6.069197177886963, 8.008621215820312, 9.163385391235352, 7.426914691925049, 9.127182006835938, 6.429244041442871, 8.08627700805664, 8.518656730651855, 6.731572151184082, 7.770135879516602, 5.154035568237305, 2.991966962814331, 1.3191579580307007, 3.2511823177337646, 1.420651912689209, -0.2508825659751892, -0.5096340775489807, -1.2932089567184448, -1.2265509366989136, -1.6347346305847168, -2.354466199874878, -2.1603660583496094, -2.9211747646331787, -3.524641752243042, -4.258442401885986, -4.156988143920898]
y: [1.5, -1.5, -3.258223056793213, -0.7056558132171631, 0.7672300934791565, 0.6943896412849426, -0.7919192314147949, -0.9524957537651062, 0.6578618288040161, -1.674356460571289, -3.107438087463379, 0.23815907537937164, -0.7652291655540466, -1.9887607097625732, -1.693998098373413, -0.9331079125404358, -2.4445323944091797, 0.10776815563440323, -5.137080192565918, -6.936516761779785, -6.189460277557373, -4.021170616149902, -5.148203372955322, -4.7761945724487305, -5.24736213684082, -5.200987815856934, -5.129555702209473, -3.5905768871307373, -3.2531590461730957, -5.2328996658325195, -3.269895076751709, -4.733415603637695, -1.6442046165466309, -2.6928985118865967, -1.170994520187378, -5.497775077819824, -2.3931236267089844, -4.878763675689697, -3.696518659591675, -2.2090365886688232]
colour: [ORANGE, ORANGE, YELLOW, YELLOW, BLUE, BLUE, YELLOW, YELLOW, BLUE, YELLOW, YELLOW,
  BLUE, BLUE, BLUE, YELLOW, BLUE, BLUE, BLUE, BLUE, BLUE, BLUE, BLUE, BLUE, BLUE,
  BLUE, BLUE, BLUE, YELLOW, YELLOW, BLUE, YELLOW, BLUE, YELLOW, YELLOW, YELLOW, BLUE,
  YELLOW, BLUE, BLUE, BLUE]
frame_id: ''
---
header: 
  seq: 37
  stamp: 
    secs: 1665451953
    nsecs: 502622496
  frame_id: "/map"
x: [0.0, 0.0, 4.224058628082275, 2.320756196975708, 3.747251272201538, 2.366133213043213, 3.557234764099121, 1.16048002243042, 4.992173671722412, 5.056729316711426, 5.902698516845703, 6.323231220245361, 6.857894420623779, 7.974014759063721, 6.069197177886963, 8.008621215820312, 9.163385391235352, 7.426914691925049, 9.127182006835938, 6.429244041442871, 8.08627700805664, 8.518656730651855, 6.731572151184082, 7.770135879516602, 5.154035568237305, 2.991966962814331, 1.3191579580307007, 3.2511823177337646, 1.420651912689209, -0.2508825659751892, -0.5096340775489807, -1.2932089567184448, -1.2265509366989136, -1.6347346305847168, -2.354466199874878, -2.1603660583496094, -2.9211747646331787, -3.524641752243042, -4.258442401885986, -4.156988143920898, -0.7826758623123169]
y: [1.5, -1.5, -3.258223056793213, -0.7056558132171631, 0.7672300934791565, 0.6943896412849426, -0.7919192314147949, -0.9524957537651062, 0.6578618288040161, -1.674356460571289, -3.107438087463379, 0.23815907537937164, -0.7652291655540466, -1.9887607097625732, -1.693998098373413, -0.9331079125404358, -2.4445323944091797, 0.10776815563440323, -5.137080192565918, -6.936516761779785, -6.189460277557373, -4.021170616149902, -5.148203372955322, -4.7761945724487305, -5.24736213684082, -5.200987815856934, -5.129555702209473, -3.5905768871307373, -3.2531590461730957, -5.2328996658325195, -3.269895076751709, -4.733415603637695, -1.6442046165466309, -2.6928985118865967, -1.170994520187378, -5.497775077819824, -2.3931236267089844, -4.878763675689697, -3.696518659591675, -2.2090365886688232, -6.168674945831299]
colour: [ORANGE, ORANGE, YELLOW, YELLOW, BLUE, BLUE, YELLOW, YELLOW, BLUE, YELLOW, YELLOW,
  BLUE, BLUE, BLUE, YELLOW, BLUE, BLUE, BLUE, BLUE, BLUE, BLUE, BLUE, BLUE, BLUE,
  BLUE, BLUE, BLUE, YELLOW, YELLOW, BLUE, YELLOW, BLUE, YELLOW, YELLOW, YELLOW, BLUE,
  YELLOW, BLUE, BLUE, BLUE, BLUE]
frame_id: ''
---
header: 
  seq: 38
  stamp: 
    secs: 1665451957
    nsecs: 236680954
  frame_id: "/map"
x: [0.0, 0.0, 4.224058628082275, 2.320756196975708, 3.747251272201538, 2.366133213043213, 3.557234764099121, 1.16048002243042, 4.992173671722412, 5.056729316711426, 5.902698516845703, 6.323231220245361, 6.857894420623779, 7.974014759063721, 6.069197177886963, 8.008621215820312, 9.163385391235352, 7.426914691925049, 9.127182006835938, 6.429244041442871, 8.08627700805664, 8.518656730651855, 6.731572151184082, 7.770135879516602, 5.154035568237305, 2.991966962814331, 1.3191579580307007, 3.2511823177337646, 1.420651912689209, -0.2508825659751892, -0.5096340775489807, -1.2932089567184448, -1.2265509366989136, -1.6347346305847168, -2.354466199874878, -2.1603660583496094, -2.9211747646331787, -3.524641752243042, -4.258442401885986, -4.156988143920898, -0.7826758623123169, -5.278139114379883]
y: [1.5, -1.5, -3.258223056793213, -0.7056558132171631, 0.7672300934791565, 0.6943896412849426, -0.7919192314147949, -0.9524957537651062, 0.6578618288040161, -1.674356460571289, -3.107438087463379, 0.23815907537937164, -0.7652291655540466, -1.9887607097625732, -1.693998098373413, -0.9331079125404358, -2.4445323944091797, 0.10776815563440323, -5.137080192565918, -6.936516761779785, -6.189460277557373, -4.021170616149902, -5.148203372955322, -4.7761945724487305, -5.24736213684082, -5.200987815856934, -5.129555702209473, -3.5905768871307373, -3.2531590461730957, -5.2328996658325195, -3.269895076751709, -4.733415603637695, -1.6442046165466309, -2.6928985118865967, -1.170994520187378, -5.497775077819824, -2.3931236267089844, -4.878763675689697, -3.696518659591675, -2.2090365886688232, -6.168674945831299, -1.7261836528778076]
colour: [ORANGE, ORANGE, YELLOW, YELLOW, BLUE, BLUE, YELLOW, YELLOW, BLUE, YELLOW, YELLOW,
  BLUE, BLUE, BLUE, YELLOW, BLUE, BLUE, BLUE, BLUE, BLUE, BLUE, BLUE, BLUE, BLUE,
  BLUE, BLUE, BLUE, YELLOW, YELLOW, BLUE, YELLOW, BLUE, YELLOW, YELLOW, YELLOW, BLUE,
  YELLOW, BLUE, BLUE, BLUE, BLUE, BLUE]
frame_id: ''
---
header: 
  seq: 39
  stamp: 
    secs: 1665451957
    nsecs: 236680954
  frame_id: "/map"
x: [0.0, 0.0, 4.224058628082275, 2.320756196975708, 3.747251272201538, 2.366133213043213, 3.557234764099121, 1.16048002243042, 4.992173671722412, 5.056729316711426, 5.902698516845703, 6.323231220245361, 6.857894420623779, 7.974014759063721, 6.069197177886963, 8.008621215820312, 9.163385391235352, 7.426914691925049, 9.127182006835938, 6.429244041442871, 8.08627700805664, 8.518656730651855, 6.731572151184082, 7.770135879516602, 5.154035568237305, 2.991966962814331, 1.3191579580307007, 3.2511823177337646, 1.420651912689209, -0.2508825659751892, -0.5096340775489807, -1.2932089567184448, -1.2265509366989136, -1.6347346305847168, -2.354466199874878, -2.1603660583496094, -2.9211747646331787, -3.524641752243042, -4.258442401885986, -4.156988143920898, -0.7826758623123169, -5.278139114379883, -5.333529949188232]
y: [1.5, -1.5, -3.258223056793213, -0.7056558132171631, 0.7672300934791565, 0.6943896412849426, -0.7919192314147949, -0.9524957537651062, 0.6578618288040161, -1.674356460571289, -3.107438087463379, 0.23815907537937164, -0.7652291655540466, -1.9887607097625732, -1.693998098373413, -0.9331079125404358, -2.4445323944091797, 0.10776815563440323, -5.137080192565918, -6.936516761779785, -6.189460277557373, -4.021170616149902, -5.148203372955322, -4.7761945724487305, -5.24736213684082, -5.200987815856934, -5.129555702209473, -3.5905768871307373, -3.2531590461730957, -5.2328996658325195, -3.269895076751709, -4.733415603637695, -1.6442046165466309, -2.6928985118865967, -1.170994520187378, -5.497775077819824, -2.3931236267089844, -4.878763675689697, -3.696518659591675, -2.2090365886688232, -6.168674945831299, -1.7261836528778076, -3.419931411743164]
colour: [ORANGE, ORANGE, YELLOW, YELLOW, BLUE, BLUE, YELLOW, YELLOW, BLUE, YELLOW, YELLOW,
  BLUE, BLUE, BLUE, YELLOW, BLUE, BLUE, BLUE, BLUE, BLUE, BLUE, BLUE, BLUE, BLUE,
  BLUE, BLUE, BLUE, YELLOW, YELLOW, BLUE, YELLOW, BLUE, YELLOW, YELLOW, YELLOW, BLUE,
  YELLOW, BLUE, BLUE, BLUE, BLUE, BLUE, BLUE]
frame_id: ''
---
header: 
  seq: 40
  stamp: 
    secs: 1665451961
    nsecs: 513786356
  frame_id: "/map"
x: [0.0, 0.0, 4.224058628082275, 2.320756196975708, 3.747251272201538, 2.366133213043213, 3.557234764099121, 1.16048002243042, 4.992173671722412, 5.056729316711426, 5.902698516845703, 6.323231220245361, 6.857894420623779, 7.974014759063721, 6.069197177886963, 8.008621215820312, 9.163385391235352, 7.426914691925049, 9.127182006835938, 6.429244041442871, 8.08627700805664, 8.518656730651855, 6.731572151184082, 7.770135879516602, 5.154035568237305, 2.991966962814331, 1.3191579580307007, 3.2511823177337646, 1.420651912689209, -0.2508825659751892, -0.5096340775489807, -1.2932089567184448, -1.2265509366989136, -1.6347346305847168, -2.354466199874878, -2.1603660583496094, -2.9211747646331787, -3.524641752243042, -4.258442401885986, -4.156988143920898, -0.7826758623123169, -5.278139114379883, -5.333529949188232, -4.809497833251953]
y: [1.5, -1.5, -3.258223056793213, -0.7056558132171631, 0.7672300934791565, 0.6943896412849426, -0.7919192314147949, -0.9524957537651062, 0.6578618288040161, -1.674356460571289, -3.107438087463379, 0.23815907537937164, -0.7652291655540466, -1.9887607097625732, -1.693998098373413, -0.9331079125404358, -2.4445323944091797, 0.10776815563440323, -5.137080192565918, -6.936516761779785, -6.189460277557373, -4.021170616149902, -5.148203372955322, -4.7761945724487305, -5.24736213684082, -5.200987815856934, -5.129555702209473, -3.5905768871307373, -3.2531590461730957, -5.2328996658325195, -3.269895076751709, -4.733415603637695, -1.6442046165466309, -2.6928985118865967, -1.170994520187378, -5.497775077819824, -2.3931236267089844, -4.878763675689697, -3.696518659591675, -2.2090365886688232, -6.168674945831299, -1.7261836528778076, -3.419931411743164, 0.38513368368148804]
colour: [ORANGE, ORANGE, YELLOW, YELLOW, BLUE, BLUE, YELLOW, YELLOW, BLUE, YELLOW, YELLOW,
  BLUE, BLUE, BLUE, YELLOW, BLUE, BLUE, BLUE, BLUE, BLUE, BLUE, BLUE, BLUE, BLUE,
  BLUE, BLUE, BLUE, YELLOW, YELLOW, BLUE, YELLOW, BLUE, YELLOW, YELLOW, YELLOW, BLUE,
  YELLOW, BLUE, BLUE, BLUE, BLUE, BLUE, BLUE, BLUE]
frame_id: ''
---
header: 
  seq: 41
  stamp: 
    secs: 1665451965
    nsecs:   4277754
  frame_id: "/map"
x: [0.0, 0.0, 4.224058628082275, 2.320756196975708, 3.747251272201538, 2.366133213043213, 3.557234764099121, 1.16048002243042, 4.992173671722412, 5.056729316711426, 5.902698516845703, 6.323231220245361, 6.857894420623779, 7.974014759063721, 6.069197177886963, 8.008621215820312, 9.163385391235352, 7.426914691925049, 9.127182006835938, 6.429244041442871, 8.08627700805664, 8.518656730651855, 6.731572151184082, 7.770135879516602, 5.154035568237305, 2.991966962814331, 1.3191579580307007, 3.2511823177337646, 1.420651912689209, -0.2508825659751892, -0.5096340775489807, -1.2932089567184448, -1.2265509366989136, -1.6347346305847168, -2.354466199874878, -2.1603660583496094, -2.9211747646331787, -3.524641752243042, -4.258442401885986, -4.156988143920898, -0.7826758623123169, -5.278139114379883, -5.333529949188232, -4.809497833251953, -2.90800142288208]
y: [1.5, -1.5, -3.258223056793213, -0.7056558132171631, 0.7672300934791565, 0.6943896412849426, -0.7919192314147949, -0.9524957537651062, 0.6578618288040161, -1.674356460571289, -3.107438087463379, 0.23815907537937164, -0.7652291655540466, -1.9887607097625732, -1.693998098373413, -0.9331079125404358, -2.4445323944091797, 0.10776815563440323, -5.137080192565918, -6.936516761779785, -6.189460277557373, -4.021170616149902, -5.148203372955322, -4.7761945724487305, -5.24736213684082, -5.200987815856934, -5.129555702209473, -3.5905768871307373, -3.2531590461730957, -5.2328996658325195, -3.269895076751709, -4.733415603637695, -1.6442046165466309, -2.6928985118865967, -1.170994520187378, -5.497775077819824, -2.3931236267089844, -4.878763675689697, -3.696518659591675, -2.2090365886688232, -6.168674945831299, -1.7261836528778076, -3.419931411743164, 0.38513368368148804, 0.677767276763916]
colour: [ORANGE, ORANGE, YELLOW, YELLOW, BLUE, BLUE, YELLOW, YELLOW, BLUE, YELLOW, YELLOW,
  BLUE, BLUE, BLUE, YELLOW, BLUE, BLUE, BLUE, BLUE, BLUE, BLUE, BLUE, BLUE, BLUE,
  BLUE, BLUE, BLUE, YELLOW, YELLOW, BLUE, YELLOW, BLUE, YELLOW, YELLOW, YELLOW, BLUE,
  YELLOW, BLUE, BLUE, BLUE, BLUE, BLUE, BLUE, BLUE, BLUE]
frame_id: ''
---
header: 
  seq: 42
  stamp: 
    secs: 1665451966
    nsecs: 933369124
  frame_id: "/map"
x: [0.0, 0.0, 4.224058628082275, 2.320756196975708, 3.747251272201538, 2.366133213043213, 3.557234764099121, 1.16048002243042, 4.992173671722412, 5.056729316711426, 5.902698516845703, 6.323231220245361, 6.857894420623779, 7.974014759063721, 6.069197177886963, 8.008621215820312, 9.163385391235352, 7.426914691925049, 9.127182006835938, 6.429244041442871, 8.08627700805664, 8.518656730651855, 6.731572151184082, 7.770135879516602, 5.154035568237305, 2.991966962814331, 1.3191579580307007, 3.2511823177337646, 1.420651912689209, -0.2508825659751892, -0.5096340775489807, -1.2932089567184448, -1.2265509366989136, -1.6347346305847168, -2.354466199874878, -2.1603660583496094, -2.9211747646331787, -3.524641752243042, -4.258442401885986, -4.156988143920898, -0.7826758623123169, -5.278139114379883, -5.333529949188232, -4.809497833251953, -2.90800142288208, -1.6199233531951904]
y: [1.5, -1.5, -3.258223056793213, -0.7056558132171631, 0.7672300934791565, 0.6943896412849426, -0.7919192314147949, -0.9524957537651062, 0.6578618288040161, -1.674356460571289, -3.107438087463379, 0.23815907537937164, -0.7652291655540466, -1.9887607097625732, -1.693998098373413, -0.9331079125404358, -2.4445323944091797, 0.10776815563440323, -5.137080192565918, -6.936516761779785, -6.189460277557373, -4.021170616149902, -5.148203372955322, -4.7761945724487305, -5.24736213684082, -5.200987815856934, -5.129555702209473, -3.5905768871307373, -3.2531590461730957, -5.2328996658325195, -3.269895076751709, -4.733415603637695, -1.6442046165466309, -2.6928985118865967, -1.170994520187378, -5.497775077819824, -2.3931236267089844, -4.878763675689697, -3.696518659591675, -2.2090365886688232, -6.168674945831299, -1.7261836528778076, -3.419931411743164, 0.38513368368148804, 0.677767276763916, 0.6879780292510986]
colour: [ORANGE, ORANGE, YELLOW, YELLOW, BLUE, BLUE, YELLOW, YELLOW, BLUE, YELLOW, YELLOW,
  BLUE, BLUE, BLUE, YELLOW, BLUE, BLUE, BLUE, BLUE, BLUE, BLUE, BLUE, BLUE, BLUE,
  BLUE, BLUE, BLUE, YELLOW, YELLOW, BLUE, YELLOW, BLUE, YELLOW, YELLOW, YELLOW, BLUE,
  YELLOW, BLUE, BLUE, BLUE, BLUE, BLUE, BLUE, BLUE, BLUE, BLUE]
frame_id: ''
---
header: 
  seq: 43
  stamp: 
    secs: 1665451968
    nsecs: 690127576
  frame_id: "/map"
x: [0.0, 0.0, 4.224058628082275, 2.320756196975708, 3.747251272201538, 2.366133213043213, 3.557234764099121, 1.16048002243042, 4.992173671722412, 5.056729316711426, 5.902698516845703, 6.323231220245361, 6.857894420623779, 7.974014759063721, 6.069197177886963, 8.008621215820312, 9.163385391235352, 7.426914691925049, 9.127182006835938, 6.429244041442871, 8.08627700805664, 8.518656730651855, 6.731572151184082, 7.770135879516602, 5.154035568237305, 2.991966962814331, 1.3191579580307007, 3.2511823177337646, 1.420651912689209, -0.2508825659751892, -0.5096340775489807, -1.2932089567184448, -1.2265509366989136, -1.6347346305847168, -2.354466199874878, -2.1603660583496094, -2.9211747646331787, -3.524641752243042, -4.258442401885986, -4.156988143920898, -0.7826758623123169, -5.278139114379883, -5.333529949188232, -4.809497833251953, -2.90800142288208, -1.6199233531951904, 0.160090371966362]
y: [1.5, -1.5, -3.258223056793213, -0.7056558132171631, 0.7672300934791565, 0.6943896412849426, -0.7919192314147949, -0.9524957537651062, 0.6578618288040161, -1.674356460571289, -3.107438087463379, 0.23815907537937164, -0.7652291655540466, -1.9887607097625732, -1.693998098373413, -0.9331079125404358, -2.4445323944091797, 0.10776815563440323, -5.137080192565918, -6.936516761779785, -6.189460277557373, -4.021170616149902, -5.148203372955322, -4.7761945724487305, -5.24736213684082, -5.200987815856934, -5.129555702209473, -3.5905768871307373, -3.2531590461730957, -5.2328996658325195, -3.269895076751709, -4.733415603637695, -1.6442046165466309, -2.6928985118865967, -1.170994520187378, -5.497775077819824, -2.3931236267089844, -4.878763675689697, -3.696518659591675, -2.2090365886688232, -6.168674945831299, -1.7261836528778076, -3.419931411743164, 0.38513368368148804, 0.677767276763916, 0.6879780292510986, 0.08252517879009247]
colour: [ORANGE, ORANGE, YELLOW, YELLOW, BLUE, BLUE, YELLOW, YELLOW, BLUE, YELLOW, YELLOW,
  BLUE, BLUE, BLUE, YELLOW, BLUE, BLUE, BLUE, BLUE, BLUE, BLUE, BLUE, BLUE, BLUE,
  BLUE, BLUE, BLUE, YELLOW, YELLOW, BLUE, YELLOW, BLUE, YELLOW, YELLOW, YELLOW, BLUE,
  YELLOW, BLUE, BLUE, BLUE, BLUE, BLUE, BLUE, BLUE, BLUE, BLUE, BLUE]
frame_id: ''
---
header: 
  seq: 44
  stamp: 
    secs: 1665451971
    nsecs: 498779148
  frame_id: "/map"
x: [0.0, 0.0, 4.224058628082275, 2.320756196975708, 3.747251272201538, 2.366133213043213, 3.557234764099121, 1.16048002243042, 4.992173671722412, 5.056729316711426, 5.902698516845703, 6.323231220245361, 6.857894420623779, 7.974014759063721, 6.069197177886963, 8.008621215820312, 9.163385391235352, 7.426914691925049, 9.127182006835938, 6.429244041442871, 8.08627700805664, 8.518656730651855, 6.731572151184082, 7.770135879516602, 5.154035568237305, 2.991966962814331, 1.3191579580307007, 3.2511823177337646, 1.420651912689209, -0.2508825659751892, -0.5096340775489807, -1.2932089567184448, -1.2265509366989136, -1.6347346305847168, -2.354466199874878, -2.1603660583496094, -2.9211747646331787, -3.524641752243042, -4.258442401885986, -4.156988143920898, -0.7826758623123169, -5.278139114379883, -5.333529949188232, -4.809497833251953, -2.90800142288208, -1.6199233531951904, 0.160090371966362, 1.2224974632263184]
y: [1.5, -1.5, -3.258223056793213, -0.7056558132171631, 0.7672300934791565, 0.6943896412849426, -0.7919192314147949, -0.9524957537651062, 0.6578618288040161, -1.674356460571289, -3.107438087463379, 0.23815907537937164, -0.7652291655540466, -1.9887607097625732, -1.693998098373413, -0.9331079125404358, -2.4445323944091797, 0.10776815563440323, -5.137080192565918, -6.936516761779785, -6.189460277557373, -4.021170616149902, -5.148203372955322, -4.7761945724487305, -5.24736213684082, -5.200987815856934, -5.129555702209473, -3.5905768871307373, -3.2531590461730957, -5.2328996658325195, -3.269895076751709, -4.733415603637695, -1.6442046165466309, -2.6928985118865967, -1.170994520187378, -5.497775077819824, -2.3931236267089844, -4.878763675689697, -3.696518659591675, -2.2090365886688232, -6.168674945831299, -1.7261836528778076, -3.419931411743164, 0.38513368368148804, 0.677767276763916, 0.6879780292510986, 0.08252517879009247, 0.3781352639198303]
colour: [ORANGE, ORANGE, YELLOW, YELLOW, BLUE, BLUE, YELLOW, YELLOW, BLUE, YELLOW, YELLOW,
  BLUE, BLUE, BLUE, YELLOW, BLUE, BLUE, BLUE, BLUE, BLUE, BLUE, BLUE, BLUE, BLUE,
  BLUE, BLUE, BLUE, YELLOW, YELLOW, BLUE, YELLOW, BLUE, YELLOW, YELLOW, YELLOW, BLUE,
  YELLOW, BLUE, BLUE, BLUE, BLUE, BLUE, BLUE, BLUE, BLUE, BLUE, BLUE, BLUE]
frame_id: ''
---
header: 
  seq: 45
  stamp: 
    secs: 1665451973
    nsecs: 294132279
  frame_id: "/map"
x: [0.0, 0.0, 4.224058628082275, 2.320756196975708, 3.747251272201538, 2.366133213043213, 3.557234764099121, 1.16048002243042, 4.992173671722412, 5.056729316711426, 5.902698516845703, 6.323231220245361, 6.857894420623779, 7.974014759063721, 6.069197177886963, 8.008621215820312, 9.163385391235352, 7.426914691925049, 9.127182006835938, 6.429244041442871, 8.08627700805664, 8.518656730651855, 6.731572151184082, 7.770135879516602, 5.154035568237305, 2.991966962814331, 1.3191579580307007, 3.2511823177337646, 1.420651912689209, -0.2508825659751892, -0.5096340775489807, -1.2932089567184448, -1.2265509366989136, -1.6347346305847168, -2.354466199874878, -2.1603660583496094, -2.9211747646331787, -3.524641752243042, -4.258442401885986, -4.156988143920898, -0.7826758623123169, -5.278139114379883, -5.333529949188232, -4.809497833251953, -2.90800142288208, -1.6199233531951904, 0.160090371966362, 1.2224974632263184, 2.7453839778900146]
y: [1.5, -1.5, -3.258223056793213, -0.7056558132171631, 0.7672300934791565, 0.6943896412849426, -0.7919192314147949, -0.9524957537651062, 0.6578618288040161, -1.674356460571289, -3.107438087463379, 0.23815907537937164, -0.7652291655540466, -1.9887607097625732, -1.693998098373413, -0.9331079125404358, -2.4445323944091797, 0.10776815563440323, -5.137080192565918, -6.936516761779785, -6.189460277557373, -4.021170616149902, -5.148203372955322, -4.7761945724487305, -5.24736213684082, -5.200987815856934, -5.129555702209473, -3.5905768871307373, -3.2531590461730957, -5.2328996658325195, -3.269895076751709, -4.733415603637695, -1.6442046165466309, -2.6928985118865967, -1.170994520187378, -5.497775077819824, -2.3931236267089844, -4.878763675689697, -3.696518659591675, -2.2090365886688232, -6.168674945831299, -1.7261836528778076, -3.419931411743164, 0.38513368368148804, 0.677767276763916, 0.6879780292510986, 0.08252517879009247, 0.3781352639198303, -1.8914662599563599]
colour: [ORANGE, ORANGE, YELLOW, YELLOW, BLUE, BLUE, YELLOW, YELLOW, BLUE, YELLOW, YELLOW,
  BLUE, BLUE, BLUE, YELLOW, BLUE, BLUE, BLUE, BLUE, BLUE, BLUE, BLUE, BLUE, BLUE,
  BLUE, BLUE, BLUE, YELLOW, YELLOW, BLUE, YELLOW, BLUE, YELLOW, YELLOW, YELLOW, BLUE,
  YELLOW, BLUE, BLUE, BLUE, BLUE, BLUE, BLUE, BLUE, BLUE, BLUE, BLUE, BLUE, YELLOW]
frame_id: ''
---
