header: 
  seq: 1
  stamp: 
    secs: 1663744412
    nsecs: 841697398
  frame_id: "/map"
x: [0.0, 0.0, 2.3358027935028076, 3.7196197509765625, 3.8913590908050537]
y: [1.5, -1.5, 0.868975818157196, 0.9564307928085327, -0.7301095128059387]
colour: [ORANGE, ORANGE, BLUE, BLUE, YELLOW]
frame_id: ''
---
header: 
  seq: 2
  stamp: 
    secs: 1663744412
    nsecs: 841697398
  frame_id: "/map"
x: [0.0, 0.0, 2.3358027935028076, 3.7196197509765625, 3.8913590908050537, 2.403660297393799]
y: [1.5, -1.5, 0.868975818157196, 0.9564307928085327, -0.7301095128059387, -0.7712951302528381]
colour: [ORANGE, ORANGE, BLUE, BLUE, YELLOW, YELLOW]
frame_id: ''
---
header: 
  seq: 3
  stamp: 
    secs: 1663744431
    nsecs: 529281449
  frame_id: "/map"
x: [0.0, 0.0, 2.3358027935028076, 3.7196197509765625, 3.8913590908050537, 2.403660297393799, 1.5780020952224731]
y: [1.5, -1.5, 0.868975818157196, 0.9564307928085327, -0.7301095128059387, -0.7712951302528381, 1.6049165725708008]
colour: [ORANGE, ORANGE, BLUE, BLUE, YELLOW, YELLOW, BLUE]
frame_id: ''
---
header: 
  seq: 4
  stamp: 
    secs: 1663744433
    nsecs: 727191800
  frame_id: "/map"
x: [0.0, 0.0, 2.3358027935028076, 3.7196197509765625, 3.8913590908050537, 2.403660297393799, 1.5780020952224731, 6.630649566650391]
y: [1.5, -1.5, 0.868975818157196, 0.9564307928085327, -0.7301095128059387, -0.7712951302528381, 1.6049165725708008, -0.8737132549285889]
colour: [ORANGE, ORANGE, BLUE, BLUE, YELLOW, YELLOW, BLUE, YELLOW]
frame_id: ''
---
header: 
  seq: 5
  stamp: 
    secs: 1663744435
    nsecs: 763767745
  frame_id: "/map"
x: [0.0, 0.0, 2.3358027935028076, 3.7196197509765625, 3.8913590908050537, 2.403660297393799, 1.5780020952224731, 6.630649566650391, 7.08613395690918]
y: [1.5, -1.5, 0.868975818157196, 0.9564307928085327, -0.7301095128059387, -0.7712951302528381, 1.6049165725708008, -0.8737132549285889, 1.2609115839004517]
colour: [ORANGE, ORANGE, BLUE, BLUE, YELLOW, YELLOW, BLUE, YELLOW, BLUE]
frame_id: ''
---
header: 
  seq: 6
  stamp: 
    secs: 1663744437
    nsecs: 546367063
  frame_id: "/map"
x: [0.0, 0.0, 2.3358027935028076, 3.7196197509765625, 3.8913590908050537, 2.403660297393799, 1.5780020952224731, 6.630649566650391, 7.08613395690918, 3.027676820755005]
y: [1.5, -1.5, 0.868975818157196, 0.9564307928085327, -0.7301095128059387, -0.7712951302528381, 1.6049165725708008, -0.8737132549285889, 1.2609115839004517, 1.904538631439209]
colour: [ORANGE, ORANGE, BLUE, BLUE, YELLOW, YELLOW, BLUE, YELLOW, BLUE, BLUE]
frame_id: ''
---
header: 
  seq: 7
  stamp: 
    secs: 1663744442
    nsecs: 535823579
  frame_id: "/map"
x: [0.0, 0.0, 2.3358027935028076, 3.7196197509765625, 3.8913590908050537, 2.403660297393799, 1.5780020952224731, 6.630649566650391, 7.08613395690918, 3.027676820755005, 9.92216682434082]
y: [1.5, -1.5, 0.868975818157196, 0.9564307928085327, -0.7301095128059387, -0.7712951302528381, 1.6049165725708008, -0.8737132549285889, 1.2609115839004517, 1.904538631439209, 1.1522440910339355]
colour: [ORANGE, ORANGE, BLUE, BLUE, YELLOW, YELLOW, BLUE, YELLOW, BLUE, BLUE, BLUE]
frame_id: ''
---
header: 
  seq: 8
  stamp: 
    secs: 1663744442
    nsecs: 535823579
  frame_id: "/map"
x: [0.0, 0.0, 2.3358027935028076, 3.7196197509765625, 3.8913590908050537, 2.403660297393799, 1.5780020952224731, 6.630649566650391, 7.08613395690918, 3.027676820755005, 9.92216682434082, 9.632889747619629]
y: [1.5, -1.5, 0.868975818157196, 0.9564307928085327, -0.7301095128059387, -0.7712951302528381, 1.6049165725708008, -0.8737132549285889, 1.2609115839004517, 1.904538631439209, 1.1522440910339355, -1.0268750190734863]
colour: [ORANGE, ORANGE, BLUE, BLUE, YELLOW, YELLOW, BLUE, YELLOW, BLUE, BLUE, BLUE, YELLOW]
frame_id: ''
---
header: 
  seq: 9
  stamp: 
    secs: 1663744448
    nsecs: 361208235
  frame_id: "/map"
x: [0.0, 0.0, 2.3358027935028076, 3.7196197509765625, 3.8913590908050537, 2.403660297393799, 1.5780020952224731, 6.630649566650391, 7.08613395690918, 3.027676820755005, 9.92216682434082, 9.632889747619629, 11.384225845336914]
y: [1.5, -1.5, 0.868975818157196, 0.9564307928085327, -0.7301095128059387, -0.7712951302528381, 1.6049165725708008, -0.8737132549285889, 1.2609115839004517, 1.904538631439209, 1.1522440910339355, -1.0268750190734863, 1.001844882965088]
colour: [ORANGE, ORANGE, BLUE, BLUE, YELLOW, YELLOW, BLUE, YELLOW, BLUE, BLUE, BLUE, YELLOW,
  BLUE]
frame_id: ''
---
header: 
  seq: 10
  stamp: 
    secs: 1663744448
    nsecs: 361208235
  frame_id: "/map"
x: [0.0, 0.0, 2.3358027935028076, 3.7196197509765625, 3.8913590908050537, 2.403660297393799, 1.5780020952224731, 6.630649566650391, 7.08613395690918, 3.027676820755005, 9.92216682434082, 9.632889747619629, 11.384225845336914, 11.69978141784668]
y: [1.5, -1.5, 0.868975818157196, 0.9564307928085327, -0.7301095128059387, -0.7712951302528381, 1.6049165725708008, -0.8737132549285889, 1.2609115839004517, 1.904538631439209, 1.1522440910339355, -1.0268750190734863, 1.001844882965088, -1.1108179092407227]
colour: [ORANGE, ORANGE, BLUE, BLUE, YELLOW, YELLOW, BLUE, YELLOW, BLUE, BLUE, BLUE, YELLOW,
  BLUE, YELLOW]
frame_id: ''
---
header: 
  seq: 11
  stamp: 
    secs: 1663744449
    nsecs: 769951803
  frame_id: "/map"
x: [0.0, 0.0, 2.3358027935028076, 3.7196197509765625, 3.8913590908050537, 2.403660297393799, 1.5780020952224731, 6.630649566650391, 7.08613395690918, 3.027676820755005, 9.92216682434082, 9.632889747619629, 11.384225845336914, 11.69978141784668, 8.030014991760254]
y: [1.5, -1.5, 0.868975818157196, 0.9564307928085327, -0.7301095128059387, -0.7712951302528381, 1.6049165725708008, -0.8737132549285889, 1.2609115839004517, 1.904538631439209, 1.1522440910339355, -1.0268750190734863, 1.001844882965088, -1.1108179092407227, 1.7722193002700806]
colour: [ORANGE, ORANGE, BLUE, BLUE, YELLOW, YELLOW, BLUE, YELLOW, BLUE, BLUE, BLUE, YELLOW,
  BLUE, YELLOW, BLUE]
frame_id: ''
---
header: 
  seq: 12
  stamp: 
    secs: 1663744450
    nsecs: 561895406
  frame_id: "/map"
x: [0.0, 0.0, 2.3358027935028076, 3.7196197509765625, 3.8913590908050537, 2.403660297393799, 1.5780020952224731, 6.630649566650391, 7.08613395690918, 3.027676820755005, 9.92216682434082, 9.632889747619629, 11.384225845336914, 11.69978141784668, 8.030014991760254, 12.687407493591309]
y: [1.5, -1.5, 0.868975818157196, 0.9564307928085327, -0.7301095128059387, -0.7712951302528381, 1.6049165725708008, -0.8737132549285889, 1.2609115839004517, 1.904538631439209, 1.1522440910339355, -1.0268750190734863, 1.001844882965088, -1.1108179092407227, 1.7722193002700806, -0.7767752408981323]
colour: [ORANGE, ORANGE, BLUE, BLUE, YELLOW, YELLOW, BLUE, YELLOW, BLUE, BLUE, BLUE, YELLOW,
  BLUE, YELLOW, BLUE, YELLOW]
frame_id: ''
---
header: 
  seq: 13
  stamp: 
    secs: 1663744452
    nsecs: 161307323
  frame_id: "/map"
x: [0.0, 0.0, 2.3358027935028076, 3.7196197509765625, 3.8913590908050537, 2.403660297393799, 1.5780020952224731, 6.630649566650391, 7.08613395690918, 3.027676820755005, 9.92216682434082, 9.632889747619629, 11.384225845336914, 11.69978141784668, 8.030014991760254, 12.687407493591309, 13.299379348754883]
y: [1.5, -1.5, 0.868975818157196, 0.9564307928085327, -0.7301095128059387, -0.7712951302528381, 1.6049165725708008, -0.8737132549285889, 1.2609115839004517, 1.904538631439209, 1.1522440910339355, -1.0268750190734863, 1.001844882965088, -1.1108179092407227, 1.7722193002700806, -0.7767752408981323, 1.5316029787063599]
colour: [ORANGE, ORANGE, BLUE, BLUE, YELLOW, YELLOW, BLUE, YELLOW, BLUE, BLUE, BLUE, YELLOW,
  BLUE, YELLOW, BLUE, YELLOW, BLUE]
frame_id: ''
---
header: 
  seq: 14
  stamp: 
    secs: 1663744455
    nsecs: 369624500
  frame_id: "/map"
x: [0.0, 0.0, 2.3358027935028076, 3.7196197509765625, 3.8913590908050537, 2.403660297393799, 1.5780020952224731, 6.630649566650391, 7.08613395690918, 3.027676820755005, 9.92216682434082, 9.632889747619629, 11.384225845336914, 11.69978141784668, 8.030014991760254, 12.687407493591309, 13.299379348754883, 14.64035415649414]
y: [1.5, -1.5, 0.868975818157196, 0.9564307928085327, -0.7301095128059387, -0.7712951302528381, 1.6049165725708008, -0.8737132549285889, 1.2609115839004517, 1.904538631439209, 1.1522440910339355, -1.0268750190734863, 1.001844882965088, -1.1108179092407227, 1.7722193002700806, -0.7767752408981323, 1.5316029787063599, 3.1703567504882812]
colour: [ORANGE, ORANGE, BLUE, BLUE, YELLOW, YELLOW, BLUE, YELLOW, BLUE, BLUE, BLUE, YELLOW,
  BLUE, YELLOW, BLUE, YELLOW, BLUE, YELLOW]
frame_id: ''
---
header: 
  seq: 15
  stamp: 
    secs: 1663744455
    nsecs: 369624500
  frame_id: "/map"
x: [0.0, 0.0, 2.3358027935028076, 3.7196197509765625, 3.8913590908050537, 2.403660297393799, 1.5780020952224731, 6.630649566650391, 7.08613395690918, 3.027676820755005, 9.92216682434082, 9.632889747619629, 11.384225845336914, 11.69978141784668, 8.030014991760254, 12.687407493591309, 13.299379348754883, 14.64035415649414, 14.668712615966797]
y: [1.5, -1.5, 0.868975818157196, 0.9564307928085327, -0.7301095128059387, -0.7712951302528381, 1.6049165725708008, -0.8737132549285889, 1.2609115839004517, 1.904538631439209, 1.1522440910339355, -1.0268750190734863, 1.001844882965088, -1.1108179092407227, 1.7722193002700806, -0.7767752408981323, 1.5316029787063599, 3.1703567504882812, 0.41803908348083496]
colour: [ORANGE, ORANGE, BLUE, BLUE, YELLOW, YELLOW, BLUE, YELLOW, BLUE, BLUE, BLUE, YELLOW,
  BLUE, YELLOW, BLUE, YELLOW, BLUE, YELLOW, YELLOW]
frame_id: ''
---
header: 
  seq: 16
  stamp: 
    secs: 1663744455
    nsecs: 963656507
  frame_id: "/map"
x: [0.0, 0.0, 2.3358027935028076, 3.7196197509765625, 3.8913590908050537, 2.403660297393799, 1.5780020952224731, 6.630649566650391, 7.08613395690918, 3.027676820755005, 9.92216682434082, 9.632889747619629, 11.384225845336914, 11.69978141784668, 8.030014991760254, 12.687407493591309, 13.299379348754883, 14.64035415649414, 14.668712615966797, 14.664481163024902]
y: [1.5, -1.5, 0.868975818157196, 0.9564307928085327, -0.7301095128059387, -0.7712951302528381, 1.6049165725708008, -0.8737132549285889, 1.2609115839004517, 1.904538631439209, 1.1522440910339355, -1.0268750190734863, 1.001844882965088, -1.1108179092407227, 1.7722193002700806, -0.7767752408981323, 1.5316029787063599, 3.1703567504882812, 0.41803908348083496, 1.7440612316131592]
colour: [ORANGE, ORANGE, BLUE, BLUE, YELLOW, YELLOW, BLUE, YELLOW, BLUE, BLUE, BLUE, YELLOW,
  BLUE, YELLOW, BLUE, YELLOW, BLUE, YELLOW, YELLOW, YELLOW]
frame_id: ''
---
header: 
  seq: 17
  stamp: 
    secs: 1663744459
    nsecs: 164310543
  frame_id: "/map"
x: [0.0, 0.0, 2.3358027935028076, 3.7196197509765625, 3.8913590908050537, 2.403660297393799, 1.5780020952224731, 6.630649566650391, 7.08613395690918, 3.027676820755005, 9.92216682434082, 9.632889747619629, 11.384225845336914, 11.69978141784668, 8.030014991760254, 12.687407493591309, 13.299379348754883, 14.64035415649414, 14.668712615966797, 14.664481163024902, 13.727753639221191]
y: [1.5, -1.5, 0.868975818157196, 0.9564307928085327, -0.7301095128059387, -0.7712951302528381, 1.6049165725708008, -0.8737132549285889, 1.2609115839004517, 1.904538631439209, 1.1522440910339355, -1.0268750190734863, 1.001844882965088, -1.1108179092407227, 1.7722193002700806, -0.7767752408981323, 1.5316029787063599, 3.1703567504882812, 0.41803908348083496, 1.7440612316131592, -0.6768275499343872]
colour: [ORANGE, ORANGE, BLUE, BLUE, YELLOW, YELLOW, BLUE, YELLOW, BLUE, BLUE, BLUE, YELLOW,
  BLUE, YELLOW, BLUE, YELLOW, BLUE, YELLOW, YELLOW, YELLOW, YELLOW]
frame_id: ''
---
header: 
  seq: 18
  stamp: 
    secs: 1663744460
    nsecs: 361911717
  frame_id: "/map"
x: [0.0, 0.0, 2.3358027935028076, 3.7196197509765625, 3.8913590908050537, 2.403660297393799, 1.5780020952224731, 6.630649566650391, 7.08613395690918, 3.027676820755005, 9.92216682434082, 9.632889747619629, 11.384225845336914, 11.69978141784668, 8.030014991760254, 12.687407493591309, 13.299379348754883, 14.64035415649414, 14.668712615966797, 14.664481163024902, 13.727753639221191, 16.138137817382812]
y: [1.5, -1.5, 0.868975818157196, 0.9564307928085327, -0.7301095128059387, -0.7712951302528381, 1.6049165725708008, -0.8737132549285889, 1.2609115839004517, 1.904538631439209, 1.1522440910339355, -1.0268750190734863, 1.001844882965088, -1.1108179092407227, 1.7722193002700806, -0.7767752408981323, 1.5316029787063599, 3.1703567504882812, 0.41803908348083496, 1.7440612316131592, -0.6768275499343872, 4.037622928619385]
colour: [ORANGE, ORANGE, BLUE, BLUE, YELLOW, YELLOW, BLUE, YELLOW, BLUE, BLUE, BLUE, YELLOW,
  BLUE, YELLOW, BLUE, YELLOW, BLUE, YELLOW, YELLOW, YELLOW, YELLOW, YELLOW]
frame_id: ''
---
header: 
  seq: 19
  stamp: 
    secs: 1663744460
    nsecs: 361911717
  frame_id: "/map"
x: [0.0, 0.0, 2.3358027935028076, 3.7196197509765625, 3.8913590908050537, 2.403660297393799, 1.5780020952224731, 6.630649566650391, 7.08613395690918, 3.027676820755005, 9.92216682434082, 9.632889747619629, 11.384225845336914, 11.69978141784668, 8.030014991760254, 12.687407493591309, 13.299379348754883, 14.64035415649414, 14.668712615966797, 14.664481163024902, 13.727753639221191, 16.138137817382812, 16.397438049316406]
y: [1.5, -1.5, 0.868975818157196, 0.9564307928085327, -0.7301095128059387, -0.7712951302528381, 1.6049165725708008, -0.8737132549285889, 1.2609115839004517, 1.904538631439209, 1.1522440910339355, -1.0268750190734863, 1.001844882965088, -1.1108179092407227, 1.7722193002700806, -0.7767752408981323, 1.5316029787063599, 3.1703567504882812, 0.41803908348083496, 1.7440612316131592, -0.6768275499343872, 4.037622928619385, 2.4949872493743896]
colour: [ORANGE, ORANGE, BLUE, BLUE, YELLOW, YELLOW, BLUE, YELLOW, BLUE, BLUE, BLUE, YELLOW,
  BLUE, YELLOW, BLUE, YELLOW, BLUE, YELLOW, YELLOW, YELLOW, YELLOW, YELLOW, YELLOW]
frame_id: ''
---
header: 
  seq: 20
  stamp: 
    secs: 1663744460
    nsecs: 361911717
  frame_id: "/map"
x: [0.0, 0.0, 2.3358027935028076, 3.7196197509765625, 3.8913590908050537, 2.403660297393799, 1.5780020952224731, 6.630649566650391, 7.08613395690918, 3.027676820755005, 9.92216682434082, 9.632889747619629, 11.384225845336914, 11.69978141784668, 8.030014991760254, 12.687407493591309, 13.299379348754883, 14.64035415649414, 14.668712615966797, 14.664481163024902, 13.727753639221191, 16.138137817382812, 16.397438049316406, 15.761062622070312]
y: [1.5, -1.5, 0.868975818157196, 0.9564307928085327, -0.7301095128059387, -0.7712951302528381, 1.6049165725708008, -0.8737132549285889, 1.2609115839004517, 1.904538631439209, 1.1522440910339355, -1.0268750190734863, 1.001844882965088, -1.1108179092407227, 1.7722193002700806, -0.7767752408981323, 1.5316029787063599, 3.1703567504882812, 0.41803908348083496, 1.7440612316131592, -0.6768275499343872, 4.037622928619385, 2.4949872493743896, 0.5464701056480408]
colour: [ORANGE, ORANGE, BLUE, BLUE, YELLOW, YELLOW, BLUE, YELLOW, BLUE, BLUE, BLUE, YELLOW,
  BLUE, YELLOW, BLUE, YELLOW, BLUE, YELLOW, YELLOW, YELLOW, YELLOW, YELLOW, YELLOW,
  YELLOW]
frame_id: ''
---
header: 
  seq: 21
  stamp: 
    secs: 1663744465
    nsecs: 939122319
  frame_id: "/map"
x: [0.0, 0.0, 2.3358027935028076, 3.7196197509765625, 3.8913590908050537, 2.403660297393799, 1.5780020952224731, 6.630649566650391, 7.08613395690918, 3.027676820755005, 9.92216682434082, 9.632889747619629, 11.384225845336914, 11.69978141784668, 8.030014991760254, 12.687407493591309, 13.299379348754883, 14.64035415649414, 14.668712615966797, 14.664481163024902, 13.727753639221191, 16.138137817382812, 16.397438049316406, 15.761062622070312, 15.546157836914062]
y: [1.5, -1.5, 0.868975818157196, 0.9564307928085327, -0.7301095128059387, -0.7712951302528381, 1.6049165725708008, -0.8737132549285889, 1.2609115839004517, 1.904538631439209, 1.1522440910339355, -1.0268750190734863, 1.001844882965088, -1.1108179092407227, 1.7722193002700806, -0.7767752408981323, 1.5316029787063599, 3.1703567504882812, 0.41803908348083496, 1.7440612316131592, -0.6768275499343872, 4.037622928619385, 2.4949872493743896, 0.5464701056480408, 4.97519063949585]
colour: [ORANGE, ORANGE, BLUE, BLUE, YELLOW, YELLOW, BLUE, YELLOW, BLUE, BLUE, BLUE, YELLOW,
  BLUE, YELLOW, BLUE, YELLOW, BLUE, YELLOW, YELLOW, YELLOW, YELLOW, YELLOW, YELLOW,
  YELLOW, YELLOW]
frame_id: ''
---
header: 
  seq: 22
  stamp: 
    secs: 1663744467
    nsecs: 166964271
  frame_id: "/map"
x: [0.0, 0.0, 2.3358027935028076, 3.7196197509765625, 3.8913590908050537, 2.403660297393799, 1.5780020952224731, 6.630649566650391, 7.08613395690918, 3.027676820755005, 9.92216682434082, 9.632889747619629, 11.384225845336914, 11.69978141784668, 8.030014991760254, 12.687407493591309, 13.299379348754883, 14.64035415649414, 14.668712615966797, 14.664481163024902, 13.727753639221191, 16.138137817382812, 16.397438049316406, 15.761062622070312, 15.546157836914062, 15.746684074401855]
y: [1.5, -1.5, 0.868975818157196, 0.9564307928085327, -0.7301095128059387, -0.7712951302528381, 1.6049165725708008, -0.8737132549285889, 1.2609115839004517, 1.904538631439209, 1.1522440910339355, -1.0268750190734863, 1.001844882965088, -1.1108179092407227, 1.7722193002700806, -0.7767752408981323, 1.5316029787063599, 3.1703567504882812, 0.41803908348083496, 1.7440612316131592, -0.6768275499343872, 4.037622928619385, 2.4949872493743896, 0.5464701056480408, 4.97519063949585, 6.007309913635254]
colour: [ORANGE, ORANGE, BLUE, BLUE, YELLOW, YELLOW, BLUE, YELLOW, BLUE, BLUE, BLUE, YELLOW,
  BLUE, YELLOW, BLUE, YELLOW, BLUE, YELLOW, YELLOW, YELLOW, YELLOW, YELLOW, YELLOW,
  YELLOW, YELLOW, YELLOW]
frame_id: ''
---
header: 
  seq: 23
  stamp: 
    secs: 1663744469
    nsecs: 166268623
  frame_id: "/map"
x: [0.0, 0.0, 2.3358027935028076, 3.7196197509765625, 3.8913590908050537, 2.403660297393799, 1.5780020952224731, 6.630649566650391, 7.08613395690918, 3.027676820755005, 9.92216682434082, 9.632889747619629, 11.384225845336914, 11.69978141784668, 8.030014991760254, 12.687407493591309, 13.299379348754883, 14.64035415649414, 14.668712615966797, 14.664481163024902, 13.727753639221191, 16.138137817382812, 16.397438049316406, 15.761062622070312, 15.546157836914062, 15.746684074401855, 13.432267189025879]
y: [1.5, -1.5, 0.868975818157196, 0.9564307928085327, -0.7301095128059387, -0.7712951302528381, 1.6049165725708008, -0.8737132549285889, 1.2609115839004517, 1.904538631439209, 1.1522440910339355, -1.0268750190734863, 1.001844882965088, -1.1108179092407227, 1.7722193002700806, -0.7767752408981323, 1.5316029787063599, 3.1703567504882812, 0.41803908348083496, 1.7440612316131592, -0.6768275499343872, 4.037622928619385, 2.4949872493743896, 0.5464701056480408, 4.97519063949585, 6.007309913635254, 6.2266106605529785]
colour: [ORANGE, ORANGE, BLUE, BLUE, YELLOW, YELLOW, BLUE, YELLOW, BLUE, BLUE, BLUE, YELLOW,
  BLUE, YELLOW, BLUE, YELLOW, BLUE, YELLOW, YELLOW, YELLOW, YELLOW, YELLOW, YELLOW,
  YELLOW, YELLOW, YELLOW, BLUE]
frame_id: ''
---
header: 
  seq: 24
  stamp: 
    secs: 1663744472
    nsecs: 569981359
  frame_id: "/map"
x: [0.0, 0.0, 2.3358027935028076, 3.7196197509765625, 3.8913590908050537, 2.403660297393799, 1.5780020952224731, 6.630649566650391, 7.08613395690918, 3.027676820755005, 9.92216682434082, 9.632889747619629, 11.384225845336914, 11.69978141784668, 8.030014991760254, 12.687407493591309, 13.299379348754883, 14.64035415649414, 14.668712615966797, 14.664481163024902, 13.727753639221191, 16.138137817382812, 16.397438049316406, 15.761062622070312, 15.546157836914062, 15.746684074401855, 13.432267189025879, 13.627073287963867]
y: [1.5, -1.5, 0.868975818157196, 0.9564307928085327, -0.7301095128059387, -0.7712951302528381, 1.6049165725708008, -0.8737132549285889, 1.2609115839004517, 1.904538631439209, 1.1522440910339355, -1.0268750190734863, 1.001844882965088, -1.1108179092407227, 1.7722193002700806, -0.7767752408981323, 1.5316029787063599, 3.1703567504882812, 0.41803908348083496, 1.7440612316131592, -0.6768275499343872, 4.037622928619385, 2.4949872493743896, 0.5464701056480408, 4.97519063949585, 6.007309913635254, 6.2266106605529785, 7.62095308303833]
colour: [ORANGE, ORANGE, BLUE, BLUE, YELLOW, YELLOW, BLUE, YELLOW, BLUE, BLUE, BLUE, YELLOW,
  BLUE, YELLOW, BLUE, YELLOW, BLUE, YELLOW, YELLOW, YELLOW, YELLOW, YELLOW, YELLOW,
  YELLOW, YELLOW, YELLOW, BLUE, BLUE]
frame_id: ''
---
header: 
  seq: 25
  stamp: 
    secs: 1663744472
    nsecs: 569981359
  frame_id: "/map"
x: [0.0, 0.0, 2.3358027935028076, 3.7196197509765625, 3.8913590908050537, 2.403660297393799, 1.5780020952224731, 6.630649566650391, 7.08613395690918, 3.027676820755005, 9.92216682434082, 9.632889747619629, 11.384225845336914, 11.69978141784668, 8.030014991760254, 12.687407493591309, 13.299379348754883, 14.64035415649414, 14.668712615966797, 14.664481163024902, 13.727753639221191, 16.138137817382812, 16.397438049316406, 15.761062622070312, 15.546157836914062, 15.746684074401855, 13.432267189025879, 13.627073287963867, 16.05252456665039]
y: [1.5, -1.5, 0.868975818157196, 0.9564307928085327, -0.7301095128059387, -0.7712951302528381, 1.6049165725708008, -0.8737132549285889, 1.2609115839004517, 1.904538631439209, 1.1522440910339355, -1.0268750190734863, 1.001844882965088, -1.1108179092407227, 1.7722193002700806, -0.7767752408981323, 1.5316029787063599, 3.1703567504882812, 0.41803908348083496, 1.7440612316131592, -0.6768275499343872, 4.037622928619385, 2.4949872493743896, 0.5464701056480408, 4.97519063949585, 6.007309913635254, 6.2266106605529785, 7.62095308303833, 7.966290473937988]
colour: [ORANGE, ORANGE, BLUE, BLUE, YELLOW, YELLOW, BLUE, YELLOW, BLUE, BLUE, BLUE, YELLOW,
  BLUE, YELLOW, BLUE, YELLOW, BLUE, YELLOW, YELLOW, YELLOW, YELLOW, YELLOW, YELLOW,
  YELLOW, YELLOW, YELLOW, BLUE, BLUE, YELLOW]
frame_id: ''
---
header: 
  seq: 26
  stamp: 
    secs: 1663744475
    nsecs: 768367874
  frame_id: "/map"
x: [0.0, 0.0, 2.3358027935028076, 3.7196197509765625, 3.8913590908050537, 2.403660297393799, 1.5780020952224731, 6.630649566650391, 7.08613395690918, 3.027676820755005, 9.92216682434082, 9.632889747619629, 11.384225845336914, 11.69978141784668, 8.030014991760254, 12.687407493591309, 13.299379348754883, 14.64035415649414, 14.668712615966797, 14.664481163024902, 13.727753639221191, 16.138137817382812, 16.397438049316406, 15.761062622070312, 15.546157836914062, 15.746684074401855, 13.432267189025879, 13.627073287963867, 16.05252456665039, 12.811382293701172]
y: [1.5, -1.5, 0.868975818157196, 0.9564307928085327, -0.7301095128059387, -0.7712951302528381, 1.6049165725708008, -0.8737132549285889, 1.2609115839004517, 1.904538631439209, 1.1522440910339355, -1.0268750190734863, 1.001844882965088, -1.1108179092407227, 1.7722193002700806, -0.7767752408981323, 1.5316029787063599, 3.1703567504882812, 0.41803908348083496, 1.7440612316131592, -0.6768275499343872, 4.037622928619385, 2.4949872493743896, 0.5464701056480408, 4.97519063949585, 6.007309913635254, 6.2266106605529785, 7.62095308303833, 7.966290473937988, 4.2198076248168945]
colour: [ORANGE, ORANGE, BLUE, BLUE, YELLOW, YELLOW, BLUE, YELLOW, BLUE, BLUE, BLUE, YELLOW,
  BLUE, YELLOW, BLUE, YELLOW, BLUE, YELLOW, YELLOW, YELLOW, YELLOW, YELLOW, YELLOW,
  YELLOW, YELLOW, YELLOW, BLUE, BLUE, YELLOW, BLUE]
frame_id: ''
---
header: 
  seq: 27
  stamp: 
    secs: 1663744476
    nsecs: 572293748
  frame_id: "/map"
x: [0.0, 0.0, 2.3358027935028076, 3.7196197509765625, 3.8913590908050537, 2.403660297393799, 1.5780020952224731, 6.630649566650391, 7.08613395690918, 3.027676820755005, 9.92216682434082, 9.632889747619629, 11.384225845336914, 11.69978141784668, 8.030014991760254, 12.687407493591309, 13.299379348754883, 14.64035415649414, 14.668712615966797, 14.664481163024902, 13.727753639221191, 16.138137817382812, 16.397438049316406, 15.761062622070312, 15.546157836914062, 15.746684074401855, 13.432267189025879, 13.627073287963867, 16.05252456665039, 12.811382293701172, 13.067882537841797]
y: [1.5, -1.5, 0.868975818157196, 0.9564307928085327, -0.7301095128059387, -0.7712951302528381, 1.6049165725708008, -0.8737132549285889, 1.2609115839004517, 1.904538631439209, 1.1522440910339355, -1.0268750190734863, 1.001844882965088, -1.1108179092407227, 1.7722193002700806, -0.7767752408981323, 1.5316029787063599, 3.1703567504882812, 0.41803908348083496, 1.7440612316131592, -0.6768275499343872, 4.037622928619385, 2.4949872493743896, 0.5464701056480408, 4.97519063949585, 6.007309913635254, 6.2266106605529785, 7.62095308303833, 7.966290473937988, 4.2198076248168945, 8.483933448791504]
colour: [ORANGE, ORANGE, BLUE, BLUE, YELLOW, YELLOW, BLUE, YELLOW, BLUE, BLUE, BLUE, YELLOW,
  BLUE, YELLOW, BLUE, YELLOW, BLUE, YELLOW, YELLOW, YELLOW, YELLOW, YELLOW, YELLOW,
  YELLOW, YELLOW, YELLOW, BLUE, BLUE, YELLOW, BLUE, BLUE]
frame_id: ''
---
header: 
  seq: 28
  stamp: 
    secs: 1663744476
    nsecs: 572293748
  frame_id: "/map"
x: [0.0, 0.0, 2.3358027935028076, 3.7196197509765625, 3.8913590908050537, 2.403660297393799, 1.5780020952224731, 6.630649566650391, 7.08613395690918, 3.027676820755005, 9.92216682434082, 9.632889747619629, 11.384225845336914, 11.69978141784668, 8.030014991760254, 12.687407493591309, 13.299379348754883, 14.64035415649414, 14.668712615966797, 14.664481163024902, 13.727753639221191, 16.138137817382812, 16.397438049316406, 15.761062622070312, 15.546157836914062, 15.746684074401855, 13.432267189025879, 13.627073287963867, 16.05252456665039, 12.811382293701172, 13.067882537841797, 15.372681617736816]
y: [1.5, -1.5, 0.868975818157196, 0.9564307928085327, -0.7301095128059387, -0.7712951302528381, 1.6049165725708008, -0.8737132549285889, 1.2609115839004517, 1.904538631439209, 1.1522440910339355, -1.0268750190734863, 1.001844882965088, -1.1108179092407227, 1.7722193002700806, -0.7767752408981323, 1.5316029787063599, 3.1703567504882812, 0.41803908348083496, 1.7440612316131592, -0.6768275499343872, 4.037622928619385, 2.4949872493743896, 0.5464701056480408, 4.97519063949585, 6.007309913635254, 6.2266106605529785, 7.62095308303833, 7.966290473937988, 4.2198076248168945, 8.483933448791504, 8.982677459716797]
colour: [ORANGE, ORANGE, BLUE, BLUE, YELLOW, YELLOW, BLUE, YELLOW, BLUE, BLUE, BLUE, YELLOW,
  BLUE, YELLOW, BLUE, YELLOW, BLUE, YELLOW, YELLOW, YELLOW, YELLOW, YELLOW, YELLOW,
  YELLOW, YELLOW, YELLOW, BLUE, BLUE, YELLOW, BLUE, BLUE, YELLOW]
frame_id: ''
---
header: 
  seq: 29
  stamp: 
    secs: 1663744477
    nsecs: 965626107
  frame_id: "/map"
x: [0.0, 0.0, 2.3358027935028076, 3.7196197509765625, 3.8913590908050537, 2.403660297393799, 1.5780020952224731, 6.630649566650391, 7.08613395690918, 3.027676820755005, 9.92216682434082, 9.632889747619629, 11.384225845336914, 11.69978141784668, 8.030014991760254, 12.687407493591309, 13.299379348754883, 14.64035415649414, 14.668712615966797, 14.664481163024902, 13.727753639221191, 16.138137817382812, 16.397438049316406, 15.761062622070312, 15.546157836914062, 15.746684074401855, 13.432267189025879, 13.627073287963867, 16.05252456665039, 12.811382293701172, 13.067882537841797, 15.372681617736816, 13.28187370300293]
y: [1.5, -1.5, 0.868975818157196, 0.9564307928085327, -0.7301095128059387, -0.7712951302528381, 1.6049165725708008, -0.8737132549285889, 1.2609115839004517, 1.904538631439209, 1.1522440910339355, -1.0268750190734863, 1.001844882965088, -1.1108179092407227, 1.7722193002700806, -0.7767752408981323, 1.5316029787063599, 3.1703567504882812, 0.41803908348083496, 1.7440612316131592, -0.6768275499343872, 4.037622928619385, 2.4949872493743896, 0.5464701056480408, 4.97519063949585, 6.007309913635254, 6.2266106605529785, 7.62095308303833, 7.966290473937988, 4.2198076248168945, 8.483933448791504, 8.982677459716797, 9.962491035461426]
colour: [ORANGE, ORANGE, BLUE, BLUE, YELLOW, YELLOW, BLUE, YELLOW, BLUE, BLUE, BLUE, YELLOW,
  BLUE, YELLOW, BLUE, YELLOW, BLUE, YELLOW, YELLOW, YELLOW, YELLOW, YELLOW, YELLOW,
  YELLOW, YELLOW, YELLOW, BLUE, BLUE, YELLOW, BLUE, BLUE, YELLOW, YELLOW]
frame_id: ''
---
header: 
  seq: 30
  stamp: 
    secs: 1663744480
    nsecs: 169827834
  frame_id: "/map"
x: [0.0, 0.0, 2.3358027935028076, 3.7196197509765625, 3.8913590908050537, 2.403660297393799, 1.5780020952224731, 6.630649566650391, 7.08613395690918, 3.027676820755005, 9.92216682434082, 9.632889747619629, 11.384225845336914, 11.69978141784668, 8.030014991760254, 12.687407493591309, 13.299379348754883, 14.64035415649414, 14.668712615966797, 14.664481163024902, 13.727753639221191, 16.138137817382812, 16.397438049316406, 15.761062622070312, 15.546157836914062, 15.746684074401855, 13.432267189025879, 13.627073287963867, 16.05252456665039, 12.811382293701172, 13.067882537841797, 15.372681617736816, 13.28187370300293, 12.218981742858887]
y: [1.5, -1.5, 0.868975818157196, 0.9564307928085327, -0.7301095128059387, -0.7712951302528381, 1.6049165725708008, -0.8737132549285889, 1.2609115839004517, 1.904538631439209, 1.1522440910339355, -1.0268750190734863, 1.001844882965088, -1.1108179092407227, 1.7722193002700806, -0.7767752408981323, 1.5316029787063599, 3.1703567504882812, 0.41803908348083496, 1.7440612316131592, -0.6768275499343872, 4.037622928619385, 2.4949872493743896, 0.5464701056480408, 4.97519063949585, 6.007309913635254, 6.2266106605529785, 7.62095308303833, 7.966290473937988, 4.2198076248168945, 8.483933448791504, 8.982677459716797, 9.962491035461426, 9.906821250915527]
colour: [ORANGE, ORANGE, BLUE, BLUE, YELLOW, YELLOW, BLUE, YELLOW, BLUE, BLUE, BLUE, YELLOW,
  BLUE, YELLOW, BLUE, YELLOW, BLUE, YELLOW, YELLOW, YELLOW, YELLOW, YELLOW, YELLOW,
  YELLOW, YELLOW, YELLOW, BLUE, BLUE, YELLOW, BLUE, BLUE, YELLOW, YELLOW, BLUE]
frame_id: ''
---
header: 
  seq: 31
  stamp: 
    secs: 1663744480
    nsecs: 169827834
  frame_id: "/map"
x: [0.0, 0.0, 2.3358027935028076, 3.7196197509765625, 3.8913590908050537, 2.403660297393799, 1.5780020952224731, 6.630649566650391, 7.08613395690918, 3.027676820755005, 9.92216682434082, 9.632889747619629, 11.384225845336914, 11.69978141784668, 8.030014991760254, 12.687407493591309, 13.299379348754883, 14.64035415649414, 14.668712615966797, 14.664481163024902, 13.727753639221191, 16.138137817382812, 16.397438049316406, 15.761062622070312, 15.546157836914062, 15.746684074401855, 13.432267189025879, 13.627073287963867, 16.05252456665039, 12.811382293701172, 13.067882537841797, 15.372681617736816, 13.28187370300293, 12.218981742858887, 14.581825256347656]
y: [1.5, -1.5, 0.868975818157196, 0.9564307928085327, -0.7301095128059387, -0.7712951302528381, 1.6049165725708008, -0.8737132549285889, 1.2609115839004517, 1.904538631439209, 1.1522440910339355, -1.0268750190734863, 1.001844882965088, -1.1108179092407227, 1.7722193002700806, -0.7767752408981323, 1.5316029787063599, 3.1703567504882812, 0.41803908348083496, 1.7440612316131592, -0.6768275499343872, 4.037622928619385, 2.4949872493743896, 0.5464701056480408, 4.97519063949585, 6.007309913635254, 6.2266106605529785, 7.62095308303833, 7.966290473937988, 4.2198076248168945, 8.483933448791504, 8.982677459716797, 9.962491035461426, 9.906821250915527, 10.009523391723633]
colour: [ORANGE, ORANGE, BLUE, BLUE, YELLOW, YELLOW, BLUE, YELLOW, BLUE, BLUE, BLUE, YELLOW,
  BLUE, YELLOW, BLUE, YELLOW, BLUE, YELLOW, YELLOW, YELLOW, YELLOW, YELLOW, YELLOW,
  YELLOW, YELLOW, YELLOW, BLUE, BLUE, YELLOW, BLUE, BLUE, YELLOW, YELLOW, BLUE, YELLOW]
frame_id: ''
---
header: 
  seq: 32
  stamp: 
    secs: 1663744483
    nsecs: 172083665
  frame_id: "/map"
x: [0.0, 0.0, 2.3358027935028076, 3.7196197509765625, 3.8913590908050537, 2.403660297393799, 1.5780020952224731, 6.630649566650391, 7.08613395690918, 3.027676820755005, 9.92216682434082, 9.632889747619629, 11.384225845336914, 11.69978141784668, 8.030014991760254, 12.687407493591309, 13.299379348754883, 14.64035415649414, 14.668712615966797, 14.664481163024902, 13.727753639221191, 16.138137817382812, 16.397438049316406, 15.761062622070312, 15.546157836914062, 15.746684074401855, 13.432267189025879, 13.627073287963867, 16.05252456665039, 12.811382293701172, 13.067882537841797, 15.372681617736816, 13.28187370300293, 12.218981742858887, 14.581825256347656, 13.328240394592285]
y: [1.5, -1.5, 0.868975818157196, 0.9564307928085327, -0.7301095128059387, -0.7712951302528381, 1.6049165725708008, -0.8737132549285889, 1.2609115839004517, 1.904538631439209, 1.1522440910339355, -1.0268750190734863, 1.001844882965088, -1.1108179092407227, 1.7722193002700806, -0.7767752408981323, 1.5316029787063599, 3.1703567504882812, 0.41803908348083496, 1.7440612316131592, -0.6768275499343872, 4.037622928619385, 2.4949872493743896, 0.5464701056480408, 4.97519063949585, 6.007309913635254, 6.2266106605529785, 7.62095308303833, 7.966290473937988, 4.2198076248168945, 8.483933448791504, 8.982677459716797, 9.962491035461426, 9.906821250915527, 10.009523391723633, 12.051722526550293]
colour: [ORANGE, ORANGE, BLUE, BLUE, YELLOW, YELLOW, BLUE, YELLOW, BLUE, BLUE, BLUE, YELLOW,
  BLUE, YELLOW, BLUE, YELLOW, BLUE, YELLOW, YELLOW, YELLOW, YELLOW, YELLOW, YELLOW,
  YELLOW, YELLOW, YELLOW, BLUE, BLUE, YELLOW, BLUE, BLUE, YELLOW, YELLOW, BLUE, YELLOW,
  YELLOW]
frame_id: ''
---
header: 
  seq: 33
  stamp: 
    secs: 1663744486
    nsecs: 568586491
  frame_id: "/map"
x: [0.0, 0.0, 2.3358027935028076, 3.7196197509765625, 3.8913590908050537, 2.403660297393799, 1.5780020952224731, 6.630649566650391, 7.08613395690918, 3.027676820755005, 9.92216682434082, 9.632889747619629, 11.384225845336914, 11.69978141784668, 8.030014991760254, 12.687407493591309, 13.299379348754883, 14.64035415649414, 14.668712615966797, 14.664481163024902, 13.727753639221191, 16.138137817382812, 16.397438049316406, 15.761062622070312, 15.546157836914062, 15.746684074401855, 13.432267189025879, 13.627073287963867, 16.05252456665039, 12.811382293701172, 13.067882537841797, 15.372681617736816, 13.28187370300293, 12.218981742858887, 14.581825256347656, 13.328240394592285, 11.61876106262207]
y: [1.5, -1.5, 0.868975818157196, 0.9564307928085327, -0.7301095128059387, -0.7712951302528381, 1.6049165725708008, -0.8737132549285889, 1.2609115839004517, 1.904538631439209, 1.1522440910339355, -1.0268750190734863, 1.001844882965088, -1.1108179092407227, 1.7722193002700806, -0.7767752408981323, 1.5316029787063599, 3.1703567504882812, 0.41803908348083496, 1.7440612316131592, -0.6768275499343872, 4.037622928619385, 2.4949872493743896, 0.5464701056480408, 4.97519063949585, 6.007309913635254, 6.2266106605529785, 7.62095308303833, 7.966290473937988, 4.2198076248168945, 8.483933448791504, 8.982677459716797, 9.962491035461426, 9.906821250915527, 10.009523391723633, 12.051722526550293, 10.806402206420898]
colour: [ORANGE, ORANGE, BLUE, BLUE, YELLOW, YELLOW, BLUE, YELLOW, BLUE, BLUE, BLUE, YELLOW,
  BLUE, YELLOW, BLUE, YELLOW, BLUE, YELLOW, YELLOW, YELLOW, YELLOW, YELLOW, YELLOW,
  YELLOW, YELLOW, YELLOW, BLUE, BLUE, YELLOW, BLUE, BLUE, YELLOW, YELLOW, BLUE, YELLOW,
  YELLOW, BLUE]
frame_id: ''
---
header: 
  seq: 34
  stamp: 
    secs: 1663744487
    nsecs: 551667358
  frame_id: "/map"
x: [0.0, 0.0, 2.3358027935028076, 3.7196197509765625, 3.8913590908050537, 2.403660297393799, 1.5780020952224731, 6.630649566650391, 7.08613395690918, 3.027676820755005, 9.92216682434082, 9.632889747619629, 11.384225845336914, 11.69978141784668, 8.030014991760254, 12.687407493591309, 13.299379348754883, 14.64035415649414, 14.668712615966797, 14.664481163024902, 13.727753639221191, 16.138137817382812, 16.397438049316406, 15.761062622070312, 15.546157836914062, 15.746684074401855, 13.432267189025879, 13.627073287963867, 16.05252456665039, 12.811382293701172, 13.067882537841797, 15.372681617736816, 13.28187370300293, 12.218981742858887, 14.581825256347656, 13.328240394592285, 11.61876106262207, 10.292306900024414]
y: [1.5, -1.5, 0.868975818157196, 0.9564307928085327, -0.7301095128059387, -0.7712951302528381, 1.6049165725708008, -0.8737132549285889, 1.2609115839004517, 1.904538631439209, 1.1522440910339355, -1.0268750190734863, 1.001844882965088, -1.1108179092407227, 1.7722193002700806, -0.7767752408981323, 1.5316029787063599, 3.1703567504882812, 0.41803908348083496, 1.7440612316131592, -0.6768275499343872, 4.037622928619385, 2.4949872493743896, 0.5464701056480408, 4.97519063949585, 6.007309913635254, 6.2266106605529785, 7.62095308303833, 7.966290473937988, 4.2198076248168945, 8.483933448791504, 8.982677459716797, 9.962491035461426, 9.906821250915527, 10.009523391723633, 12.051722526550293, 10.806402206420898, 11.943962097167969]
colour: [ORANGE, ORANGE, BLUE, BLUE, YELLOW, YELLOW, BLUE, YELLOW, BLUE, BLUE, BLUE, YELLOW,
  BLUE, YELLOW, BLUE, YELLOW, BLUE, YELLOW, YELLOW, YELLOW, YELLOW, YELLOW, YELLOW,
  YELLOW, YELLOW, YELLOW, BLUE, BLUE, YELLOW, BLUE, BLUE, YELLOW, YELLOW, BLUE, YELLOW,
  YELLOW, BLUE, BLUE]
frame_id: ''
---
header: 
  seq: 35
  stamp: 
    secs: 1663744487
    nsecs: 966773905
  frame_id: "/map"
x: [0.0, 0.0, 2.3358027935028076, 3.7196197509765625, 3.8913590908050537, 2.403660297393799, 1.5780020952224731, 6.630649566650391, 7.08613395690918, 3.027676820755005, 9.92216682434082, 9.632889747619629, 11.384225845336914, 11.69978141784668, 8.030014991760254, 12.687407493591309, 13.299379348754883, 14.64035415649414, 14.668712615966797, 14.664481163024902, 13.727753639221191, 16.138137817382812, 16.397438049316406, 15.761062622070312, 15.546157836914062, 15.746684074401855, 13.432267189025879, 13.627073287963867, 16.05252456665039, 12.811382293701172, 13.067882537841797, 15.372681617736816, 13.28187370300293, 12.218981742858887, 14.581825256347656, 13.328240394592285, 11.61876106262207, 10.292306900024414, 12.088271141052246]
y: [1.5, -1.5, 0.868975818157196, 0.9564307928085327, -0.7301095128059387, -0.7712951302528381, 1.6049165725708008, -0.8737132549285889, 1.2609115839004517, 1.904538631439209, 1.1522440910339355, -1.0268750190734863, 1.001844882965088, -1.1108179092407227, 1.7722193002700806, -0.7767752408981323, 1.5316029787063599, 3.1703567504882812, 0.41803908348083496, 1.7440612316131592, -0.6768275499343872, 4.037622928619385, 2.4949872493743896, 0.5464701056480408, 4.97519063949585, 6.007309913635254, 6.2266106605529785, 7.62095308303833, 7.966290473937988, 4.2198076248168945, 8.483933448791504, 8.982677459716797, 9.962491035461426, 9.906821250915527, 10.009523391723633, 12.051722526550293, 10.806402206420898, 11.943962097167969, 12.957633018493652]
colour: [ORANGE, ORANGE, BLUE, BLUE, YELLOW, YELLOW, BLUE, YELLOW, BLUE, BLUE, BLUE, YELLOW,
  BLUE, YELLOW, BLUE, YELLOW, BLUE, YELLOW, YELLOW, YELLOW, YELLOW, YELLOW, YELLOW,
  YELLOW, YELLOW, YELLOW, BLUE, BLUE, YELLOW, BLUE, BLUE, YELLOW, YELLOW, BLUE, YELLOW,
  YELLOW, BLUE, BLUE, YELLOW]
frame_id: ''
---
header: 
  seq: 36
  stamp: 
    secs: 1663744491
    nsecs: 364528436
  frame_id: "/map"
x: [0.0, 0.0, 2.3358027935028076, 3.7196197509765625, 3.8913590908050537, 2.403660297393799, 1.5780020952224731, 6.630649566650391, 7.08613395690918, 3.027676820755005, 9.92216682434082, 9.632889747619629, 11.384225845336914, 11.69978141784668, 8.030014991760254, 12.687407493591309, 13.299379348754883, 14.64035415649414, 14.668712615966797, 14.664481163024902, 13.727753639221191, 16.138137817382812, 16.397438049316406, 15.761062622070312, 15.546157836914062, 15.746684074401855, 13.432267189025879, 13.627073287963867, 16.05252456665039, 12.811382293701172, 13.067882537841797, 15.372681617736816, 13.28187370300293, 12.218981742858887, 14.581825256347656, 13.328240394592285, 11.61876106262207, 10.292306900024414, 12.088271141052246, 11.897542953491211]
y: [1.5, -1.5, 0.868975818157196, 0.9564307928085327, -0.7301095128059387, -0.7712951302528381, 1.6049165725708008, -0.8737132549285889, 1.2609115839004517, 1.904538631439209, 1.1522440910339355, -1.0268750190734863, 1.001844882965088, -1.1108179092407227, 1.7722193002700806, -0.7767752408981323, 1.5316029787063599, 3.1703567504882812, 0.41803908348083496, 1.7440612316131592, -0.6768275499343872, 4.037622928619385, 2.4949872493743896, 0.5464701056480408, 4.97519063949585, 6.007309913635254, 6.2266106605529785, 7.62095308303833, 7.966290473937988, 4.2198076248168945, 8.483933448791504, 8.982677459716797, 9.962491035461426, 9.906821250915527, 10.009523391723633, 12.051722526550293, 10.806402206420898, 11.943962097167969, 12.957633018493652, 8.868081092834473]
colour: [ORANGE, ORANGE, BLUE, BLUE, YELLOW, YELLOW, BLUE, YELLOW, BLUE, BLUE, BLUE, YELLOW,
  BLUE, YELLOW, BLUE, YELLOW, BLUE, YELLOW, YELLOW, YELLOW, YELLOW, YELLOW, YELLOW,
  YELLOW, YELLOW, YELLOW, BLUE, BLUE, YELLOW, BLUE, BLUE, YELLOW, YELLOW, BLUE, YELLOW,
  YELLOW, BLUE, BLUE, YELLOW, BLUE]
frame_id: ''
---
header: 
  seq: 37
  stamp: 
    secs: 1663744491
    nsecs: 364528436
  frame_id: "/map"
x: [0.0, 0.0, 2.3358027935028076, 3.7196197509765625, 3.8913590908050537, 2.403660297393799, 1.5780020952224731, 6.630649566650391, 7.08613395690918, 3.027676820755005, 9.92216682434082, 9.632889747619629, 11.384225845336914, 11.69978141784668, 8.030014991760254, 12.687407493591309, 13.299379348754883, 14.64035415649414, 14.668712615966797, 14.664481163024902, 13.727753639221191, 16.138137817382812, 16.397438049316406, 15.761062622070312, 15.546157836914062, 15.746684074401855, 13.432267189025879, 13.627073287963867, 16.05252456665039, 12.811382293701172, 13.067882537841797, 15.372681617736816, 13.28187370300293, 12.218981742858887, 14.581825256347656, 13.328240394592285, 11.61876106262207, 10.292306900024414, 12.088271141052246, 11.897542953491211, 10.990728378295898]
y: [1.5, -1.5, 0.868975818157196, 0.9564307928085327, -0.7301095128059387, -0.7712951302528381, 1.6049165725708008, -0.8737132549285889, 1.2609115839004517, 1.904538631439209, 1.1522440910339355, -1.0268750190734863, 1.001844882965088, -1.1108179092407227, 1.7722193002700806, -0.7767752408981323, 1.5316029787063599, 3.1703567504882812, 0.41803908348083496, 1.7440612316131592, -0.6768275499343872, 4.037622928619385, 2.4949872493743896, 0.5464701056480408, 4.97519063949585, 6.007309913635254, 6.2266106605529785, 7.62095308303833, 7.966290473937988, 4.2198076248168945, 8.483933448791504, 8.982677459716797, 9.962491035461426, 9.906821250915527, 10.009523391723633, 12.051722526550293, 10.806402206420898, 11.943962097167969, 12.957633018493652, 8.868081092834473, 14.250885009765625]
colour: [ORANGE, ORANGE, BLUE, BLUE, YELLOW, YELLOW, BLUE, YELLOW, BLUE, BLUE, BLUE, YELLOW,
  BLUE, YELLOW, BLUE, YELLOW, BLUE, YELLOW, YELLOW, YELLOW, YELLOW, YELLOW, YELLOW,
  YELLOW, YELLOW, YELLOW, BLUE, BLUE, YELLOW, BLUE, BLUE, YELLOW, YELLOW, BLUE, YELLOW,
  YELLOW, BLUE, BLUE, YELLOW, BLUE, YELLOW]
frame_id: ''
---
header: 
  seq: 38
  stamp: 
    secs: 1663744491
    nsecs: 968464262
  frame_id: "/map"
x: [0.0, 0.0, 2.3358027935028076, 3.7196197509765625, 3.8913590908050537, 2.403660297393799, 1.5780020952224731, 6.630649566650391, 7.08613395690918, 3.027676820755005, 9.92216682434082, 9.632889747619629, 11.384225845336914, 11.69978141784668, 8.030014991760254, 12.687407493591309, 13.299379348754883, 14.64035415649414, 14.668712615966797, 14.664481163024902, 13.727753639221191, 16.138137817382812, 16.397438049316406, 15.761062622070312, 15.546157836914062, 15.746684074401855, 13.432267189025879, 13.627073287963867, 16.05252456665039, 12.811382293701172, 13.067882537841797, 15.372681617736816, 13.28187370300293, 12.218981742858887, 14.581825256347656, 13.328240394592285, 11.61876106262207, 10.292306900024414, 12.088271141052246, 11.897542953491211, 10.990728378295898, 9.3303804397583]
y: [1.5, -1.5, 0.868975818157196, 0.9564307928085327, -0.7301095128059387, -0.7712951302528381, 1.6049165725708008, -0.8737132549285889, 1.2609115839004517, 1.904538631439209, 1.1522440910339355, -1.0268750190734863, 1.001844882965088, -1.1108179092407227, 1.7722193002700806, -0.7767752408981323, 1.5316029787063599, 3.1703567504882812, 0.41803908348083496, 1.7440612316131592, -0.6768275499343872, 4.037622928619385, 2.4949872493743896, 0.5464701056480408, 4.97519063949585, 6.007309913635254, 6.2266106605529785, 7.62095308303833, 7.966290473937988, 4.2198076248168945, 8.483933448791504, 8.982677459716797, 9.962491035461426, 9.906821250915527, 10.009523391723633, 12.051722526550293, 10.806402206420898, 11.943962097167969, 12.957633018493652, 8.868081092834473, 14.250885009765625, 13.159517288208008]
colour: [ORANGE, ORANGE, BLUE, BLUE, YELLOW, YELLOW, BLUE, YELLOW, BLUE, BLUE, BLUE, YELLOW,
  BLUE, YELLOW, BLUE, YELLOW, BLUE, YELLOW, YELLOW, YELLOW, YELLOW, YELLOW, YELLOW,
  YELLOW, YELLOW, YELLOW, BLUE, BLUE, YELLOW, BLUE, BLUE, YELLOW, YELLOW, BLUE, YELLOW,
  YELLOW, BLUE, BLUE, YELLOW, BLUE, YELLOW, BLUE]
frame_id: ''
---
header: 
  seq: 39
  stamp: 
    secs: 1663744499
    nsecs: 167921300
  frame_id: "/map"
x: [0.0, 0.0, 2.3358027935028076, 3.7196197509765625, 3.8913590908050537, 2.403660297393799, 1.5780020952224731, 6.630649566650391, 7.08613395690918, 3.027676820755005, 9.92216682434082, 9.632889747619629, 11.384225845336914, 11.69978141784668, 8.030014991760254, 12.687407493591309, 13.299379348754883, 14.64035415649414, 14.668712615966797, 14.664481163024902, 13.727753639221191, 16.138137817382812, 16.397438049316406, 15.761062622070312, 15.546157836914062, 15.746684074401855, 13.432267189025879, 13.627073287963867, 16.05252456665039, 12.811382293701172, 13.067882537841797, 15.372681617736816, 13.28187370300293, 12.218981742858887, 14.581825256347656, 13.328240394592285, 11.61876106262207, 10.292306900024414, 12.088271141052246, 11.897542953491211, 10.990728378295898, 9.3303804397583, 10.409652709960938]
y: [1.5, -1.5, 0.868975818157196, 0.9564307928085327, -0.7301095128059387, -0.7712951302528381, 1.6049165725708008, -0.8737132549285889, 1.2609115839004517, 1.904538631439209, 1.1522440910339355, -1.0268750190734863, 1.001844882965088, -1.1108179092407227, 1.7722193002700806, -0.7767752408981323, 1.5316029787063599, 3.1703567504882812, 0.41803908348083496, 1.7440612316131592, -0.6768275499343872, 4.037622928619385, 2.4949872493743896, 0.5464701056480408, 4.97519063949585, 6.007309913635254, 6.2266106605529785, 7.62095308303833, 7.966290473937988, 4.2198076248168945, 8.483933448791504, 8.982677459716797, 9.962491035461426, 9.906821250915527, 10.009523391723633, 12.051722526550293, 10.806402206420898, 11.943962097167969, 12.957633018493652, 8.868081092834473, 14.250885009765625, 13.159517288208008, 15.079984664916992]
colour: [ORANGE, ORANGE, BLUE, BLUE, YELLOW, YELLOW, BLUE, YELLOW, BLUE, BLUE, BLUE, YELLOW,
  BLUE, YELLOW, BLUE, YELLOW, BLUE, YELLOW, YELLOW, YELLOW, YELLOW, YELLOW, YELLOW,
  YELLOW, YELLOW, YELLOW, BLUE, BLUE, YELLOW, BLUE, BLUE, YELLOW, YELLOW, BLUE, YELLOW,
  YELLOW, BLUE, BLUE, YELLOW, BLUE, YELLOW, BLUE, YELLOW]
frame_id: ''
---
header: 
  seq: 40
  stamp: 
    secs: 1663744500
    nsecs: 163399325
  frame_id: "/map"
x: [0.0, 0.0, 2.3358027935028076, 3.7196197509765625, 3.8913590908050537, 2.403660297393799, 1.5780020952224731, 6.630649566650391, 7.08613395690918, 3.027676820755005, 9.92216682434082, 9.632889747619629, 11.384225845336914, 11.69978141784668, 8.030014991760254, 12.687407493591309, 13.299379348754883, 14.64035415649414, 14.668712615966797, 14.664481163024902, 13.727753639221191, 16.138137817382812, 16.397438049316406, 15.761062622070312, 15.546157836914062, 15.746684074401855, 13.432267189025879, 13.627073287963867, 16.05252456665039, 12.811382293701172, 13.067882537841797, 15.372681617736816, 13.28187370300293, 12.218981742858887, 14.581825256347656, 13.328240394592285, 11.61876106262207, 10.292306900024414, 12.088271141052246, 11.897542953491211, 10.990728378295898, 9.3303804397583, 10.409652709960938, 8.77174186706543]
y: [1.5, -1.5, 0.868975818157196, 0.9564307928085327, -0.7301095128059387, -0.7712951302528381, 1.6049165725708008, -0.8737132549285889, 1.2609115839004517, 1.904538631439209, 1.1522440910339355, -1.0268750190734863, 1.001844882965088, -1.1108179092407227, 1.7722193002700806, -0.7767752408981323, 1.5316029787063599, 3.1703567504882812, 0.41803908348083496, 1.7440612316131592, -0.6768275499343872, 4.037622928619385, 2.4949872493743896, 0.5464701056480408, 4.97519063949585, 6.007309913635254, 6.2266106605529785, 7.62095308303833, 7.966290473937988, 4.2198076248168945, 8.483933448791504, 8.982677459716797, 9.962491035461426, 9.906821250915527, 10.009523391723633, 12.051722526550293, 10.806402206420898, 11.943962097167969, 12.957633018493652, 8.868081092834473, 14.250885009765625, 13.159517288208008, 15.079984664916992, 14.133512496948242]
colour: [ORANGE, ORANGE, BLUE, BLUE, YELLOW, YELLOW, BLUE, YELLOW, BLUE, BLUE, BLUE, YELLOW,
  BLUE, YELLOW, BLUE, YELLOW, BLUE, YELLOW, YELLOW, YELLOW, YELLOW, YELLOW, YELLOW,
  YELLOW, YELLOW, YELLOW, BLUE, BLUE, YELLOW, BLUE, BLUE, YELLOW, YELLOW, BLUE, YELLOW,
  YELLOW, BLUE, BLUE, YELLOW, BLUE, YELLOW, BLUE, YELLOW, BLUE]
frame_id: ''
---
header: 
  seq: 41
  stamp: 
    secs: 1663744501
    nsecs: 151702032
  frame_id: "/map"
x: [0.0, 0.0, 2.3358027935028076, 3.7196197509765625, 3.8913590908050537, 2.403660297393799, 1.5780020952224731, 6.630649566650391, 7.08613395690918, 3.027676820755005, 9.92216682434082, 9.632889747619629, 11.384225845336914, 11.69978141784668, 8.030014991760254, 12.687407493591309, 13.299379348754883, 14.64035415649414, 14.668712615966797, 14.664481163024902, 13.727753639221191, 16.138137817382812, 16.397438049316406, 15.761062622070312, 15.546157836914062, 15.746684074401855, 13.432267189025879, 13.627073287963867, 16.05252456665039, 12.811382293701172, 13.067882537841797, 15.372681617736816, 13.28187370300293, 12.218981742858887, 14.581825256347656, 13.328240394592285, 11.61876106262207, 10.292306900024414, 12.088271141052246, 11.897542953491211, 10.990728378295898, 9.3303804397583, 10.409652709960938, 8.77174186706543, 7.0369110107421875]
y: [1.5, -1.5, 0.868975818157196, 0.9564307928085327, -0.7301095128059387, -0.7712951302528381, 1.6049165725708008, -0.8737132549285889, 1.2609115839004517, 1.904538631439209, 1.1522440910339355, -1.0268750190734863, 1.001844882965088, -1.1108179092407227, 1.7722193002700806, -0.7767752408981323, 1.5316029787063599, 3.1703567504882812, 0.41803908348083496, 1.7440612316131592, -0.6768275499343872, 4.037622928619385, 2.4949872493743896, 0.5464701056480408, 4.97519063949585, 6.007309913635254, 6.2266106605529785, 7.62095308303833, 7.966290473937988, 4.2198076248168945, 8.483933448791504, 8.982677459716797, 9.962491035461426, 9.906821250915527, 10.009523391723633, 12.051722526550293, 10.806402206420898, 11.943962097167969, 12.957633018493652, 8.868081092834473, 14.250885009765625, 13.159517288208008, 15.079984664916992, 14.133512496948242, 15.745790481567383]
colour: [ORANGE, ORANGE, BLUE, BLUE, YELLOW, YELLOW, BLUE, YELLOW, BLUE, BLUE, BLUE, YELLOW,
  BLUE, YELLOW, BLUE, YELLOW, BLUE, YELLOW, YELLOW, YELLOW, YELLOW, YELLOW, YELLOW,
  YELLOW, YELLOW, YELLOW, BLUE, BLUE, YELLOW, BLUE, BLUE, YELLOW, YELLOW, BLUE, YELLOW,
  YELLOW, BLUE, BLUE, YELLOW, BLUE, YELLOW, BLUE, YELLOW, BLUE, BLUE]
frame_id: ''
---
header: 
  seq: 42
  stamp: 
    secs: 1663744501
    nsecs: 151702032
  frame_id: "/map"
x: [0.0, 0.0, 2.3358027935028076, 3.7196197509765625, 3.8913590908050537, 2.403660297393799, 1.5780020952224731, 6.630649566650391, 7.08613395690918, 3.027676820755005, 9.92216682434082, 9.632889747619629, 11.384225845336914, 11.69978141784668, 8.030014991760254, 12.687407493591309, 13.299379348754883, 14.64035415649414, 14.668712615966797, 14.664481163024902, 13.727753639221191, 16.138137817382812, 16.397438049316406, 15.761062622070312, 15.546157836914062, 15.746684074401855, 13.432267189025879, 13.627073287963867, 16.05252456665039, 12.811382293701172, 13.067882537841797, 15.372681617736816, 13.28187370300293, 12.218981742858887, 14.581825256347656, 13.328240394592285, 11.61876106262207, 10.292306900024414, 12.088271141052246, 11.897542953491211, 10.990728378295898, 9.3303804397583, 10.409652709960938, 8.77174186706543, 7.0369110107421875, 9.000532150268555]
y: [1.5, -1.5, 0.868975818157196, 0.9564307928085327, -0.7301095128059387, -0.7712951302528381, 1.6049165725708008, -0.8737132549285889, 1.2609115839004517, 1.904538631439209, 1.1522440910339355, -1.0268750190734863, 1.001844882965088, -1.1108179092407227, 1.7722193002700806, -0.7767752408981323, 1.5316029787063599, 3.1703567504882812, 0.41803908348083496, 1.7440612316131592, -0.6768275499343872, 4.037622928619385, 2.4949872493743896, 0.5464701056480408, 4.97519063949585, 6.007309913635254, 6.2266106605529785, 7.62095308303833, 7.966290473937988, 4.2198076248168945, 8.483933448791504, 8.982677459716797, 9.962491035461426, 9.906821250915527, 10.009523391723633, 12.051722526550293, 10.806402206420898, 11.943962097167969, 12.957633018493652, 8.868081092834473, 14.250885009765625, 13.159517288208008, 15.079984664916992, 14.133512496948242, 15.745790481567383, 17.330982208251953]
colour: [ORANGE, ORANGE, BLUE, BLUE, YELLOW, YELLOW, BLUE, YELLOW, BLUE, BLUE, BLUE, YELLOW,
  BLUE, YELLOW, BLUE, YELLOW, BLUE, YELLOW, YELLOW, YELLOW, YELLOW, YELLOW, YELLOW,
  YELLOW, YELLOW, YELLOW, BLUE, BLUE, YELLOW, BLUE, BLUE, YELLOW, YELLOW, BLUE, YELLOW,
  YELLOW, BLUE, BLUE, YELLOW, BLUE, YELLOW, BLUE, YELLOW, BLUE, BLUE, YELLOW]
frame_id: ''
---
header: 
  seq: 43
  stamp: 
    secs: 1663744504
    nsecs: 169434898
  frame_id: "/map"
x: [0.0, 0.0, 2.3358027935028076, 3.7196197509765625, 3.8913590908050537, 2.403660297393799, 1.5780020952224731, 6.630649566650391, 7.08613395690918, 3.027676820755005, 9.92216682434082, 9.632889747619629, 11.384225845336914, 11.69978141784668, 8.030014991760254, 12.687407493591309, 13.299379348754883, 14.64035415649414, 14.668712615966797, 14.664481163024902, 13.727753639221191, 16.138137817382812, 16.397438049316406, 15.761062622070312, 15.546157836914062, 15.746684074401855, 13.432267189025879, 13.627073287963867, 16.05252456665039, 12.811382293701172, 13.067882537841797, 15.372681617736816, 13.28187370300293, 12.218981742858887, 14.581825256347656, 13.328240394592285, 11.61876106262207, 10.292306900024414, 12.088271141052246, 11.897542953491211, 10.990728378295898, 9.3303804397583, 10.409652709960938, 8.77174186706543, 7.0369110107421875, 9.000532150268555, 6.254589080810547]
y: [1.5, -1.5, 0.868975818157196, 0.9564307928085327, -0.7301095128059387, -0.7712951302528381, 1.6049165725708008, -0.8737132549285889, 1.2609115839004517, 1.904538631439209, 1.1522440910339355, -1.0268750190734863, 1.001844882965088, -1.1108179092407227, 1.7722193002700806, -0.7767752408981323, 1.5316029787063599, 3.1703567504882812, 0.41803908348083496, 1.7440612316131592, -0.6768275499343872, 4.037622928619385, 2.4949872493743896, 0.5464701056480408, 4.97519063949585, 6.007309913635254, 6.2266106605529785, 7.62095308303833, 7.966290473937988, 4.2198076248168945, 8.483933448791504, 8.982677459716797, 9.962491035461426, 9.906821250915527, 10.009523391723633, 12.051722526550293, 10.806402206420898, 11.943962097167969, 12.957633018493652, 8.868081092834473, 14.250885009765625, 13.159517288208008, 15.079984664916992, 14.133512496948242, 15.745790481567383, 17.330982208251953, 16.526653289794922]
colour: [ORANGE, ORANGE, BLUE, BLUE, YELLOW, YELLOW, BLUE, YELLOW, BLUE, BLUE, BLUE, YELLOW,
  BLUE, YELLOW, BLUE, YELLOW, BLUE, YELLOW, YELLOW, YELLOW, YELLOW, YELLOW, YELLOW,
  YELLOW, YELLOW, YELLOW, BLUE, BLUE, YELLOW, BLUE, BLUE, YELLOW, YELLOW, BLUE, YELLOW,
  YELLOW, BLUE, BLUE, YELLOW, BLUE, YELLOW, BLUE, YELLOW, BLUE, BLUE, YELLOW, BLUE]
frame_id: ''
---
header: 
  seq: 44
  stamp: 
    secs: 1663744506
    nsecs: 565442253
  frame_id: "/map"
x: [0.0, 0.0, 2.3358027935028076, 3.7196197509765625, 3.8913590908050537, 2.403660297393799, 1.5780020952224731, 6.630649566650391, 7.08613395690918, 3.027676820755005, 9.92216682434082, 9.632889747619629, 11.384225845336914, 11.69978141784668, 8.030014991760254, 12.687407493591309, 13.299379348754883, 14.64035415649414, 14.668712615966797, 14.664481163024902, 13.727753639221191, 16.138137817382812, 16.397438049316406, 15.761062622070312, 15.546157836914062, 15.746684074401855, 13.432267189025879, 13.627073287963867, 16.05252456665039, 12.811382293701172, 13.067882537841797, 15.372681617736816, 13.28187370300293, 12.218981742858887, 14.581825256347656, 13.328240394592285, 11.61876106262207, 10.292306900024414, 12.088271141052246, 11.897542953491211, 10.990728378295898, 9.3303804397583, 10.409652709960938, 8.77174186706543, 7.0369110107421875, 9.000532150268555, 6.254589080810547, 7.509995937347412]
y: [1.5, -1.5, 0.868975818157196, 0.9564307928085327, -0.7301095128059387, -0.7712951302528381, 1.6049165725708008, -0.8737132549285889, 1.2609115839004517, 1.904538631439209, 1.1522440910339355, -1.0268750190734863, 1.001844882965088, -1.1108179092407227, 1.7722193002700806, -0.7767752408981323, 1.5316029787063599, 3.1703567504882812, 0.41803908348083496, 1.7440612316131592, -0.6768275499343872, 4.037622928619385, 2.4949872493743896, 0.5464701056480408, 4.97519063949585, 6.007309913635254, 6.2266106605529785, 7.62095308303833, 7.966290473937988, 4.2198076248168945, 8.483933448791504, 8.982677459716797, 9.962491035461426, 9.906821250915527, 10.009523391723633, 12.051722526550293, 10.806402206420898, 11.943962097167969, 12.957633018493652, 8.868081092834473, 14.250885009765625, 13.159517288208008, 15.079984664916992, 14.133512496948242, 15.745790481567383, 17.330982208251953, 16.526653289794922, 18.646509170532227]
colour: [ORANGE, ORANGE, BLUE, BLUE, YELLOW, YELLOW, BLUE, YELLOW, BLUE, BLUE, BLUE, YELLOW,
  BLUE, YELLOW, BLUE, YELLOW, BLUE, YELLOW, YELLOW, YELLOW, YELLOW, YELLOW, YELLOW,
  YELLOW, YELLOW, YELLOW, BLUE, BLUE, YELLOW, BLUE, BLUE, YELLOW, YELLOW, BLUE, YELLOW,
  YELLOW, BLUE, BLUE, YELLOW, BLUE, YELLOW, BLUE, YELLOW, BLUE, BLUE, YELLOW, BLUE,
  YELLOW]
frame_id: ''
---
header: 
  seq: 45
  stamp: 
    secs: 1663744507
    nsecs: 368088831
  frame_id: "/map"
x: [0.0, 0.0, 2.3358027935028076, 3.7196197509765625, 3.8913590908050537, 2.403660297393799, 1.5780020952224731, 6.630649566650391, 7.08613395690918, 3.027676820755005, 9.92216682434082, 9.632889747619629, 11.384225845336914, 11.69978141784668, 8.030014991760254, 12.687407493591309, 13.299379348754883, 14.64035415649414, 14.668712615966797, 14.664481163024902, 13.727753639221191, 16.138137817382812, 16.397438049316406, 15.761062622070312, 15.546157836914062, 15.746684074401855, 13.432267189025879, 13.627073287963867, 16.05252456665039, 12.811382293701172, 13.067882537841797, 15.372681617736816, 13.28187370300293, 12.218981742858887, 14.581825256347656, 13.328240394592285, 11.61876106262207, 10.292306900024414, 12.088271141052246, 11.897542953491211, 10.990728378295898, 9.3303804397583, 10.409652709960938, 8.77174186706543, 7.0369110107421875, 9.000532150268555, 6.254589080810547, 7.509995937347412, 7.6982598304748535]
y: [1.5, -1.5, 0.868975818157196, 0.9564307928085327, -0.7301095128059387, -0.7712951302528381, 1.6049165725708008, -0.8737132549285889, 1.2609115839004517, 1.904538631439209, 1.1522440910339355, -1.0268750190734863, 1.001844882965088, -1.1108179092407227, 1.7722193002700806, -0.7767752408981323, 1.5316029787063599, 3.1703567504882812, 0.41803908348083496, 1.7440612316131592, -0.6768275499343872, 4.037622928619385, 2.4949872493743896, 0.5464701056480408, 4.97519063949585, 6.007309913635254, 6.2266106605529785, 7.62095308303833, 7.966290473937988, 4.2198076248168945, 8.483933448791504, 8.982677459716797, 9.962491035461426, 9.906821250915527, 10.009523391723633, 12.051722526550293, 10.806402206420898, 11.943962097167969, 12.957633018493652, 8.868081092834473, 14.250885009765625, 13.159517288208008, 15.079984664916992, 14.133512496948242, 15.745790481567383, 17.330982208251953, 16.526653289794922, 18.646509170532227, 14.812524795532227]
colour: [ORANGE, ORANGE, BLUE, BLUE, YELLOW, YELLOW, BLUE, YELLOW, BLUE, BLUE, BLUE, YELLOW,
  BLUE, YELLOW, BLUE, YELLOW, BLUE, YELLOW, YELLOW, YELLOW, YELLOW, YELLOW, YELLOW,
  YELLOW, YELLOW, YELLOW, BLUE, BLUE, YELLOW, BLUE, BLUE, YELLOW, YELLOW, BLUE, YELLOW,
  YELLOW, BLUE, BLUE, YELLOW, BLUE, YELLOW, BLUE, YELLOW, BLUE, BLUE, YELLOW, BLUE,
  YELLOW, BLUE]
frame_id: ''
---
header: 
  seq: 46
  stamp: 
    secs: 1663744507
    nsecs: 368088831
  frame_id: "/map"
