frame_id: ''
header: 
  seq: 0
  stamp: 
    secs: 1663744429
    nsecs: 411510560
  frame_id: "/map"
x: [0.0, 0.0, 1.9310096502304077, 3.334218740463257]
y: [1.5, -1.5, 0.8560818433761597, -0.7834198474884033]
colour: [ORANGE, ORANGE, BLUE, YELLOW]
frame_id: ''
---
header: 
  seq: 1
  stamp: 
    secs: 1663744429
    nsecs: 411510560
  frame_id: "/map"
x: [0.0, 0.0, 1.9310096502304077, 3.334218740463257, 3.2852120399475098]
y: [1.5, -1.5, 0.8560818433761597, -0.7834198474884033, 0.906613826751709]
colour: [ORANGE, ORANGE, BLUE, YELLOW, BLUE]
frame_id: ''
---
header: 
  seq: 2
  stamp: 
    secs: 1663744429
    nsecs: 411510560
  frame_id: "/map"
x: [0.0, 0.0, 1.9310096502304077, 3.334218740463257, 3.2852120399475098, 1.8795366287231445]
y: [1.5, -1.5, 0.8560818433761597, -0.7834198474884033, 0.906613826751709, -0.8090403079986572]
colour: [ORANGE, ORANGE, BLUE, YELLOW, BLUE, YELLOW]
frame_id: ''
---
header: 
  seq: 3
  stamp: 
    secs: 1663744431
    nsecs: 755119651
  frame_id: "/map"
x: [0.0, 0.0, 1.9310096502304077, 3.334218740463257, 3.2852120399475098, 1.8795366287231445, 1.073386311531067]
y: [1.5, -1.5, 0.8560818433761597, -0.7834198474884033, 0.906613826751709, -0.8090403079986572, 1.4931946992874146]
colour: [ORANGE, ORANGE, BLUE, YELLOW, BLUE, YELLOW, BLUE]
frame_id: ''
---
header: 
  seq: 4
  stamp: 
    secs: 1663744433
    nsecs: 351541886
  frame_id: "/map"
x: [0.0, 0.0, 1.9310096502304077, 3.334218740463257, 3.2852120399475098, 1.8795366287231445, 1.073386311531067, 5.883209705352783]
y: [1.5, -1.5, 0.8560818433761597, -0.7834198474884033, 0.906613826751709, -0.8090403079986572, 1.4931946992874146, 0.885968804359436]
colour: [ORANGE, ORANGE, BLUE, YELLOW, BLUE, YELLOW, BLUE, BLUE]
frame_id: ''
---
header: 
  seq: 5
  stamp: 
    secs: 1663744433
    nsecs: 351541886
  frame_id: "/map"
x: [0.0, 0.0, 1.9310096502304077, 3.334218740463257, 3.2852120399475098, 1.8795366287231445, 1.073386311531067, 5.883209705352783, 5.779142379760742]
y: [1.5, -1.5, 0.8560818433761597, -0.7834198474884033, 0.906613826751709, -0.8090403079986572, 1.4931946992874146, 0.885968804359436, -0.9248017072677612]
colour: [ORANGE, ORANGE, BLUE, YELLOW, BLUE, YELLOW, BLUE, BLUE, YELLOW]
frame_id: ''
---
header: 
  seq: 6
  stamp: 
    secs: 1663744441
    nsecs: 767384726
  frame_id: "/map"
x: [0.0, 0.0, 1.9310096502304077, 3.334218740463257, 3.2852120399475098, 1.8795366287231445, 1.073386311531067, 5.883209705352783, 5.779142379760742, 9.100351333618164]
y: [1.5, -1.5, 0.8560818433761597, -0.7834198474884033, 0.906613826751709, -0.8090403079986572, 1.4931946992874146, 0.885968804359436, -0.9248017072677612, 1.0395430326461792]
colour: [ORANGE, ORANGE, BLUE, YELLOW, BLUE, YELLOW, BLUE, BLUE, YELLOW, BLUE]
frame_id: ''
---
header: 
  seq: 7
  stamp: 
    secs: 1663744441
    nsecs: 767384726
  frame_id: "/map"
x: [0.0, 0.0, 1.9310096502304077, 3.334218740463257, 3.2852120399475098, 1.8795366287231445, 1.073386311531067, 5.883209705352783, 5.779142379760742, 9.100351333618164, 8.751004219055176]
y: [1.5, -1.5, 0.8560818433761597, -0.7834198474884033, 0.906613826751709, -0.8090403079986572, 1.4931946992874146, 0.885968804359436, -0.9248017072677612, 1.0395430326461792, -1.1391493082046509]
colour: [ORANGE, ORANGE, BLUE, YELLOW, BLUE, YELLOW, BLUE, BLUE, YELLOW, BLUE, YELLOW]
frame_id: ''
---
header: 
  seq: 8
  stamp: 
    secs: 1663744447
    nsecs: 926255258
  frame_id: "/map"
x: [0.0, 0.0, 1.9310096502304077, 3.334218740463257, 3.2852120399475098, 1.8795366287231445, 1.073386311531067, 5.883209705352783, 5.779142379760742, 9.100351333618164, 8.751004219055176, 11.327714920043945]
y: [1.5, -1.5, 0.8560818433761597, -0.7834198474884033, 0.906613826751709, -0.8090403079986572, 1.4931946992874146, 0.885968804359436, -0.9248017072677612, 1.0395430326461792, -1.1391493082046509, 1.0065430402755737]
colour: [ORANGE, ORANGE, BLUE, YELLOW, BLUE, YELLOW, BLUE, BLUE, YELLOW, BLUE, YELLOW, BLUE]
frame_id: ''
---
header: 
  seq: 9
  stamp: 
    secs: 1663744448
    nsecs: 565415614
  frame_id: "/map"
x: [0.0, 0.0, 1.9310096502304077, 3.334218740463257, 3.2852120399475098, 1.8795366287231445, 1.073386311531067, 5.883209705352783, 5.779142379760742, 9.100351333618164, 8.751004219055176, 11.327714920043945, 10.619626998901367]
y: [1.5, -1.5, 0.8560818433761597, -0.7834198474884033, 0.906613826751709, -0.8090403079986572, 1.4931946992874146, 0.885968804359436, -0.9248017072677612, 1.0395430326461792, -1.1391493082046509, 1.0065430402755737, -1.158833384513855]
colour: [ORANGE, ORANGE, BLUE, YELLOW, BLUE, YELLOW, BLUE, BLUE, YELLOW, BLUE, YELLOW, BLUE,
  YELLOW]
frame_id: ''
---
header: 
  seq: 10
  stamp: 
    secs: 1663744449
    nsecs: 117861856
  frame_id: "/map"
x: [0.0, 0.0, 1.9310096502304077, 3.334218740463257, 3.2852120399475098, 1.8795366287231445, 1.073386311531067, 5.883209705352783, 5.779142379760742, 9.100351333618164, 8.751004219055176, 11.327714920043945, 10.619626998901367, 11.803092956542969]
y: [1.5, -1.5, 0.8560818433761597, -0.7834198474884033, 0.906613826751709, -0.8090403079986572, 1.4931946992874146, 0.885968804359436, -0.9248017072677612, 1.0395430326461792, -1.1391493082046509, 1.0065430402755737, -1.158833384513855, -0.9613851308822632]
colour: [ORANGE, ORANGE, BLUE, YELLOW, BLUE, YELLOW, BLUE, BLUE, YELLOW, BLUE, YELLOW, BLUE,
  YELLOW, YELLOW]
frame_id: ''
---
header: 
  seq: 11
  stamp: 
    secs: 1663744449
    nsecs: 117861856
  frame_id: "/map"
x: [0.0, 0.0, 1.9310096502304077, 3.334218740463257, 3.2852120399475098, 1.8795366287231445, 1.073386311531067, 5.883209705352783, 5.779142379760742, 9.100351333618164, 8.751004219055176, 11.327714920043945, 10.619626998901367, 11.803092956542969, 10.355161666870117]
y: [1.5, -1.5, 0.8560818433761597, -0.7834198474884033, 0.906613826751709, -0.8090403079986572, 1.4931946992874146, 0.885968804359436, -0.9248017072677612, 1.0395430326461792, -1.1391493082046509, 1.0065430402755737, -1.158833384513855, -0.9613851308822632, 0.7352806925773621]
colour: [ORANGE, ORANGE, BLUE, YELLOW, BLUE, YELLOW, BLUE, BLUE, YELLOW, BLUE, YELLOW, BLUE,
  YELLOW, YELLOW, BLUE]
frame_id: ''
---
header: 
  seq: 12
  stamp: 
    secs: 1663744449
    nsecs: 561809757
  frame_id: "/map"
x: [0.0, 0.0, 1.9310096502304077, 3.334218740463257, 3.2852120399475098, 1.8795366287231445, 1.073386311531067, 5.883209705352783, 5.779142379760742, 9.100351333618164, 8.751004219055176, 11.327714920043945, 10.619626998901367, 11.803092956542969, 10.355161666870117, 7.350165843963623]
y: [1.5, -1.5, 0.8560818433761597, -0.7834198474884033, 0.906613826751709, -0.8090403079986572, 1.4931946992874146, 0.885968804359436, -0.9248017072677612, 1.0395430326461792, -1.1391493082046509, 1.0065430402755737, -1.158833384513855, -0.9613851308822632, 0.7352806925773621, 1.685702919960022]
colour: [ORANGE, ORANGE, BLUE, YELLOW, BLUE, YELLOW, BLUE, BLUE, YELLOW, BLUE, YELLOW, BLUE,
  YELLOW, YELLOW, BLUE, BLUE]
frame_id: ''
---
header: 
  seq: 13
  stamp: 
    secs: 1663744451
    nsecs: 970116862
  frame_id: "/map"
x: [0.0, 0.0, 1.9310096502304077, 3.334218740463257, 3.2852120399475098, 1.8795366287231445, 1.073386311531067, 5.883209705352783, 5.779142379760742, 9.100351333618164, 8.751004219055176, 11.327714920043945, 10.619626998901367, 11.803092956542969, 10.355161666870117, 7.350165843963623, 12.514436721801758]
y: [1.5, -1.5, 0.8560818433761597, -0.7834198474884033, 0.906613826751709, -0.8090403079986572, 1.4931946992874146, 0.885968804359436, -0.9248017072677612, 1.0395430326461792, -1.1391493082046509, 1.0065430402755737, -1.158833384513855, -0.9613851308822632, 0.7352806925773621, 1.685702919960022, 1.397255778312683]
colour: [ORANGE, ORANGE, BLUE, YELLOW, BLUE, YELLOW, BLUE, BLUE, YELLOW, BLUE, YELLOW, BLUE,
  YELLOW, YELLOW, BLUE, BLUE, BLUE]
frame_id: ''
---
header: 
  seq: 14
  stamp: 
    secs: 1663744453
    nsecs: 166505489
  frame_id: "/map"
x: [0.0, 0.0, 1.9310096502304077, 3.334218740463257, 3.2852120399475098, 1.8795366287231445, 1.073386311531067, 5.883209705352783, 5.779142379760742, 9.100351333618164, 8.751004219055176, 11.327714920043945, 10.619626998901367, 11.803092956542969, 10.355161666870117, 7.350165843963623, 12.514436721801758, 12.844015121459961]
y: [1.5, -1.5, 0.8560818433761597, -0.7834198474884033, 0.906613826751709, -0.8090403079986572, 1.4931946992874146, 0.885968804359436, -0.9248017072677612, 1.0395430326461792, -1.1391493082046509, 1.0065430402755737, -1.158833384513855, -0.9613851308822632, 0.7352806925773621, 1.685702919960022, 1.397255778312683, -1.024353265762329]
colour: [ORANGE, ORANGE, BLUE, YELLOW, BLUE, YELLOW, BLUE, BLUE, YELLOW, BLUE, YELLOW, BLUE,
  YELLOW, YELLOW, BLUE, BLUE, BLUE, YELLOW]
frame_id: ''
---
header: 
  seq: 15
  stamp: 
    secs: 1663744455
    nsecs: 559289846
  frame_id: "/map"
x: [0.0, 0.0, 1.9310096502304077, 3.334218740463257, 3.2852120399475098, 1.8795366287231445, 1.073386311531067, 5.883209705352783, 5.779142379760742, 9.100351333618164, 8.751004219055176, 11.327714920043945, 10.619626998901367, 11.803092956542969, 10.355161666870117, 7.350165843963623, 12.514436721801758, 12.844015121459961, 14.020792961120605]
y: [1.5, -1.5, 0.8560818433761597, -0.7834198474884033, 0.906613826751709, -0.8090403079986572, 1.4931946992874146, 0.885968804359436, -0.9248017072677612, 1.0395430326461792, -1.1391493082046509, 1.0065430402755737, -1.158833384513855, -0.9613851308822632, 0.7352806925773621, 1.685702919960022, 1.397255778312683, -1.024353265762329, 0.23623667657375336]
colour: [ORANGE, ORANGE, BLUE, YELLOW, BLUE, YELLOW, BLUE, BLUE, YELLOW, BLUE, YELLOW, BLUE,
  YELLOW, YELLOW, BLUE, BLUE, BLUE, YELLOW, YELLOW]
frame_id: ''
---
header: 
  seq: 16
  stamp: 
    secs: 1663744455
    nsecs: 559289846
  frame_id: "/map"
x: [0.0, 0.0, 1.9310096502304077, 3.334218740463257, 3.2852120399475098, 1.8795366287231445, 1.073386311531067, 5.883209705352783, 5.779142379760742, 9.100351333618164, 8.751004219055176, 11.327714920043945, 10.619626998901367, 11.803092956542969, 10.355161666870117, 7.350165843963623, 12.514436721801758, 12.844015121459961, 14.020792961120605, 13.946118354797363]
y: [1.5, -1.5, 0.8560818433761597, -0.7834198474884033, 0.906613826751709, -0.8090403079986572, 1.4931946992874146, 0.885968804359436, -0.9248017072677612, 1.0395430326461792, -1.1391493082046509, 1.0065430402755737, -1.158833384513855, -0.9613851308822632, 0.7352806925773621, 1.685702919960022, 1.397255778312683, -1.024353265762329, 0.23623667657375336, 2.9382524490356445]
colour: [ORANGE, ORANGE, BLUE, YELLOW, BLUE, YELLOW, BLUE, BLUE, YELLOW, BLUE, YELLOW, BLUE,
  YELLOW, YELLOW, BLUE, BLUE, BLUE, YELLOW, YELLOW, YELLOW]
frame_id: ''
---
header: 
  seq: 17
  stamp: 
    secs: 1663744456
    nsecs: 139935734
  frame_id: "/map"
x: [0.0, 0.0, 1.9310096502304077, 3.334218740463257, 3.2852120399475098, 1.8795366287231445, 1.073386311531067, 5.883209705352783, 5.779142379760742, 9.100351333618164, 8.751004219055176, 11.327714920043945, 10.619626998901367, 11.803092956542969, 10.355161666870117, 7.350165843963623, 12.514436721801758, 12.844015121459961, 14.020792961120605, 13.946118354797363, 13.986109733581543]
y: [1.5, -1.5, 0.8560818433761597, -0.7834198474884033, 0.906613826751709, -0.8090403079986572, 1.4931946992874146, 0.885968804359436, -0.9248017072677612, 1.0395430326461792, -1.1391493082046509, 1.0065430402755737, -1.158833384513855, -0.9613851308822632, 0.7352806925773621, 1.685702919960022, 1.397255778312683, -1.024353265762329, 0.23623667657375336, 2.9382524490356445, 1.5329049825668335]
colour: [ORANGE, ORANGE, BLUE, YELLOW, BLUE, YELLOW, BLUE, BLUE, YELLOW, BLUE, YELLOW, BLUE,
  YELLOW, YELLOW, BLUE, BLUE, BLUE, YELLOW, YELLOW, YELLOW, YELLOW]
frame_id: ''
---
header: 
  seq: 18
  stamp: 
    secs: 1663744459
    nsecs: 170554900
  frame_id: "/map"
x: [0.0, 0.0, 1.9310096502304077, 3.334218740463257, 3.2852120399475098, 1.8795366287231445, 1.073386311531067, 5.883209705352783, 5.779142379760742, 9.100351333618164, 8.751004219055176, 11.327714920043945, 10.619626998901367, 11.803092956542969, 10.355161666870117, 7.350165843963623, 12.514436721801758, 12.844015121459961, 14.020792961120605, 13.946118354797363, 13.986109733581543, 15.059758186340332]
y: [1.5, -1.5, 0.8560818433761597, -0.7834198474884033, 0.906613826751709, -0.8090403079986572, 1.4931946992874146, 0.885968804359436, -0.9248017072677612, 1.0395430326461792, -1.1391493082046509, 1.0065430402755737, -1.158833384513855, -0.9613851308822632, 0.7352806925773621, 1.685702919960022, 1.397255778312683, -1.024353265762329, 0.23623667657375336, 2.9382524490356445, 1.5329049825668335, 1.9779024124145508]
colour: [ORANGE, ORANGE, BLUE, YELLOW, BLUE, YELLOW, BLUE, BLUE, YELLOW, BLUE, YELLOW, BLUE,
  YELLOW, YELLOW, BLUE, BLUE, BLUE, YELLOW, YELLOW, YELLOW, YELLOW, YELLOW]
frame_id: ''
---
header: 
  seq: 19
  stamp: 
    secs: 1663744460
    nsecs: 130584559
  frame_id: "/map"
x: [0.0, 0.0, 1.9310096502304077, 3.334218740463257, 3.2852120399475098, 1.8795366287231445, 1.073386311531067, 5.883209705352783, 5.779142379760742, 9.100351333618164, 8.751004219055176, 11.327714920043945, 10.619626998901367, 11.803092956542969, 10.355161666870117, 7.350165843963623, 12.514436721801758, 12.844015121459961, 14.020792961120605, 13.946118354797363, 13.986109733581543, 15.059758186340332, 15.420171737670898]
y: [1.5, -1.5, 0.8560818433761597, -0.7834198474884033, 0.906613826751709, -0.8090403079986572, 1.4931946992874146, 0.885968804359436, -0.9248017072677612, 1.0395430326461792, -1.1391493082046509, 1.0065430402755737, -1.158833384513855, -0.9613851308822632, 0.7352806925773621, 1.685702919960022, 1.397255778312683, -1.024353265762329, 0.23623667657375336, 2.9382524490356445, 1.5329049825668335, 1.9779024124145508, 3.8091957569122314]
colour: [ORANGE, ORANGE, BLUE, YELLOW, BLUE, YELLOW, BLUE, BLUE, YELLOW, BLUE, YELLOW, BLUE,
  YELLOW, YELLOW, BLUE, BLUE, BLUE, YELLOW, YELLOW, YELLOW, YELLOW, YELLOW, YELLOW]
frame_id: ''
---
header: 
  seq: 20
  stamp: 
    secs: 1663744460
    nsecs: 370094630
  frame_id: "/map"
x: [0.0, 0.0, 1.9310096502304077, 3.334218740463257, 3.2852120399475098, 1.8795366287231445, 1.073386311531067, 5.883209705352783, 5.779142379760742, 9.100351333618164, 8.751004219055176, 11.327714920043945, 10.619626998901367, 11.803092956542969, 10.355161666870117, 7.350165843963623, 12.514436721801758, 12.844015121459961, 14.020792961120605, 13.946118354797363, 13.986109733581543, 15.059758186340332, 15.420171737670898, 15.04794692993164]
y: [1.5, -1.5, 0.8560818433761597, -0.7834198474884033, 0.906613826751709, -0.8090403079986572, 1.4931946992874146, 0.885968804359436, -0.9248017072677612, 1.0395430326461792, -1.1391493082046509, 1.0065430402755737, -1.158833384513855, -0.9613851308822632, 0.7352806925773621, 1.685702919960022, 1.397255778312683, -1.024353265762329, 0.23623667657375336, 2.9382524490356445, 1.5329049825668335, 1.9779024124145508, 3.8091957569122314, 0.28434398770332336]
colour: [ORANGE, ORANGE, BLUE, YELLOW, BLUE, YELLOW, BLUE, BLUE, YELLOW, BLUE, YELLOW, BLUE,
  YELLOW, YELLOW, BLUE, BLUE, BLUE, YELLOW, YELLOW, YELLOW, YELLOW, YELLOW, YELLOW,
  YELLOW]
frame_id: ''
---
header: 
  seq: 21
  stamp: 
    secs: 1663744465
    nsecs: 959001233
  frame_id: "/map"
x: [0.0, 0.0, 1.9310096502304077, 3.334218740463257, 3.2852120399475098, 1.8795366287231445, 1.073386311531067, 5.883209705352783, 5.779142379760742, 9.100351333618164, 8.751004219055176, 11.327714920043945, 10.619626998901367, 11.803092956542969, 10.355161666870117, 7.350165843963623, 12.514436721801758, 12.844015121459961, 14.020792961120605, 13.946118354797363, 13.986109733581543, 15.059758186340332, 15.420171737670898, 15.04794692993164, 14.958133697509766]
y: [1.5, -1.5, 0.8560818433761597, -0.7834198474884033, 0.906613826751709, -0.8090403079986572, 1.4931946992874146, 0.885968804359436, -0.9248017072677612, 1.0395430326461792, -1.1391493082046509, 1.0065430402755737, -1.158833384513855, -0.9613851308822632, 0.7352806925773621, 1.685702919960022, 1.397255778312683, -1.024353265762329, 0.23623667657375336, 2.9382524490356445, 1.5329049825668335, 1.9779024124145508, 3.8091957569122314, 0.28434398770332336, 4.8434062004089355]
colour: [ORANGE, ORANGE, BLUE, YELLOW, BLUE, YELLOW, BLUE, BLUE, YELLOW, BLUE, YELLOW, BLUE,
  YELLOW, YELLOW, BLUE, BLUE, BLUE, YELLOW, YELLOW, YELLOW, YELLOW, YELLOW, YELLOW,
  YELLOW, YELLOW]
frame_id: ''
---
header: 
  seq: 22
  stamp: 
    secs: 1663744468
    nsecs: 282491339
  frame_id: "/map"
x: [0.0, 0.0, 1.9310096502304077, 3.334218740463257, 3.2852120399475098, 1.8795366287231445, 1.073386311531067, 5.883209705352783, 5.779142379760742, 9.100351333618164, 8.751004219055176, 11.327714920043945, 10.619626998901367, 11.803092956542969, 10.355161666870117, 7.350165843963623, 12.514436721801758, 12.844015121459961, 14.020792961120605, 13.946118354797363, 13.986109733581543, 15.059758186340332, 15.420171737670898, 15.04794692993164, 14.958133697509766, 14.999690055847168]
y: [1.5, -1.5, 0.8560818433761597, -0.7834198474884033, 0.906613826751709, -0.8090403079986572, 1.4931946992874146, 0.885968804359436, -0.9248017072677612, 1.0395430326461792, -1.1391493082046509, 1.0065430402755737, -1.158833384513855, -0.9613851308822632, 0.7352806925773621, 1.685702919960022, 1.397255778312683, -1.024353265762329, 0.23623667657375336, 2.9382524490356445, 1.5329049825668335, 1.9779024124145508, 3.8091957569122314, 0.28434398770332336, 4.8434062004089355, 5.968311309814453]
colour: [ORANGE, ORANGE, BLUE, YELLOW, BLUE, YELLOW, BLUE, BLUE, YELLOW, BLUE, YELLOW, BLUE,
  YELLOW, YELLOW, BLUE, BLUE, BLUE, YELLOW, YELLOW, YELLOW, YELLOW, YELLOW, YELLOW,
  YELLOW, YELLOW, YELLOW]
frame_id: ''
---
header: 
  seq: 23
  stamp: 
    secs: 1663744469
    nsecs: 324859081
  frame_id: "/map"
x: [0.0, 0.0, 1.9310096502304077, 3.334218740463257, 3.2852120399475098, 1.8795366287231445, 1.073386311531067, 5.883209705352783, 5.779142379760742, 9.100351333618164, 8.751004219055176, 11.327714920043945, 10.619626998901367, 11.803092956542969, 10.355161666870117, 7.350165843963623, 12.514436721801758, 12.844015121459961, 14.020792961120605, 13.946118354797363, 13.986109733581543, 15.059758186340332, 15.420171737670898, 15.04794692993164, 14.958133697509766, 14.999690055847168, 12.818276405334473]
y: [1.5, -1.5, 0.8560818433761597, -0.7834198474884033, 0.906613826751709, -0.8090403079986572, 1.4931946992874146, 0.885968804359436, -0.9248017072677612, 1.0395430326461792, -1.1391493082046509, 1.0065430402755737, -1.158833384513855, -0.9613851308822632, 0.7352806925773621, 1.685702919960022, 1.397255778312683, -1.024353265762329, 0.23623667657375336, 2.9382524490356445, 1.5329049825668335, 1.9779024124145508, 3.8091957569122314, 0.28434398770332336, 4.8434062004089355, 5.968311309814453, 6.084220886230469]
colour: [ORANGE, ORANGE, BLUE, YELLOW, BLUE, YELLOW, BLUE, BLUE, YELLOW, BLUE, YELLOW, BLUE,
  YELLOW, YELLOW, BLUE, BLUE, BLUE, YELLOW, YELLOW, YELLOW, YELLOW, YELLOW, YELLOW,
  YELLOW, YELLOW, YELLOW, BLUE]
frame_id: ''
---
header: 
  seq: 24
  stamp: 
    secs: 1663744472
    nsecs: 730875171
  frame_id: "/map"
x: [0.0, 0.0, 1.9310096502304077, 3.334218740463257, 3.2852120399475098, 1.8795366287231445, 1.073386311531067, 5.883209705352783, 5.779142379760742, 9.100351333618164, 8.751004219055176, 11.327714920043945, 10.619626998901367, 11.803092956542969, 10.355161666870117, 7.350165843963623, 12.514436721801758, 12.844015121459961, 14.020792961120605, 13.946118354797363, 13.986109733581543, 15.059758186340332, 15.420171737670898, 15.04794692993164, 14.958133697509766, 14.999690055847168, 12.818276405334473, 13.046455383300781]
y: [1.5, -1.5, 0.8560818433761597, -0.7834198474884033, 0.906613826751709, -0.8090403079986572, 1.4931946992874146, 0.885968804359436, -0.9248017072677612, 1.0395430326461792, -1.1391493082046509, 1.0065430402755737, -1.158833384513855, -0.9613851308822632, 0.7352806925773621, 1.685702919960022, 1.397255778312683, -1.024353265762329, 0.23623667657375336, 2.9382524490356445, 1.5329049825668335, 1.9779024124145508, 3.8091957569122314, 0.28434398770332336, 4.8434062004089355, 5.968311309814453, 6.084220886230469, 7.434114933013916]
colour: [ORANGE, ORANGE, BLUE, YELLOW, BLUE, YELLOW, BLUE, BLUE, YELLOW, BLUE, YELLOW, BLUE,
  YELLOW, YELLOW, BLUE, BLUE, BLUE, YELLOW, YELLOW, YELLOW, YELLOW, YELLOW, YELLOW,
  YELLOW, YELLOW, YELLOW, BLUE, BLUE]
frame_id: ''
---
header: 
  seq: 25
  stamp: 
    secs: 1663744472
    nsecs: 730875171
  frame_id: "/map"
x: [0.0, 0.0, 1.9310096502304077, 3.334218740463257, 3.2852120399475098, 1.8795366287231445, 1.073386311531067, 5.883209705352783, 5.779142379760742, 9.100351333618164, 8.751004219055176, 11.327714920043945, 10.619626998901367, 11.803092956542969, 10.355161666870117, 7.350165843963623, 12.514436721801758, 12.844015121459961, 14.020792961120605, 13.946118354797363, 13.986109733581543, 15.059758186340332, 15.420171737670898, 15.04794692993164, 14.958133697509766, 14.999690055847168, 12.818276405334473, 13.046455383300781, 15.475043296813965]
y: [1.5, -1.5, 0.8560818433761597, -0.7834198474884033, 0.906613826751709, -0.8090403079986572, 1.4931946992874146, 0.885968804359436, -0.9248017072677612, 1.0395430326461792, -1.1391493082046509, 1.0065430402755737, -1.158833384513855, -0.9613851308822632, 0.7352806925773621, 1.685702919960022, 1.397255778312683, -1.024353265762329, 0.23623667657375336, 2.9382524490356445, 1.5329049825668335, 1.9779024124145508, 3.8091957569122314, 0.28434398770332336, 4.8434062004089355, 5.968311309814453, 6.084220886230469, 7.434114933013916, 7.726017951965332]
colour: [ORANGE, ORANGE, BLUE, YELLOW, BLUE, YELLOW, BLUE, BLUE, YELLOW, BLUE, YELLOW, BLUE,
  YELLOW, YELLOW, BLUE, BLUE, BLUE, YELLOW, YELLOW, YELLOW, YELLOW, YELLOW, YELLOW,
  YELLOW, YELLOW, YELLOW, BLUE, BLUE, YELLOW]
frame_id: ''
---
header: 
  seq: 26
  stamp: 
    secs: 1663744475
    nsecs: 371621826
  frame_id: "/map"
x: [0.0, 0.0, 1.9310096502304077, 3.334218740463257, 3.2852120399475098, 1.8795366287231445, 1.073386311531067, 5.883209705352783, 5.779142379760742, 9.100351333618164, 8.751004219055176, 11.327714920043945, 10.619626998901367, 11.803092956542969, 10.355161666870117, 7.350165843963623, 12.514436721801758, 12.844015121459961, 14.020792961120605, 13.946118354797363, 13.986109733581543, 15.059758186340332, 15.420171737670898, 15.04794692993164, 14.958133697509766, 14.999690055847168, 12.818276405334473, 13.046455383300781, 15.475043296813965, 12.344382286071777]
y: [1.5, -1.5, 0.8560818433761597, -0.7834198474884033, 0.906613826751709, -0.8090403079986572, 1.4931946992874146, 0.885968804359436, -0.9248017072677612, 1.0395430326461792, -1.1391493082046509, 1.0065430402755737, -1.158833384513855, -0.9613851308822632, 0.7352806925773621, 1.685702919960022, 1.397255778312683, -1.024353265762329, 0.23623667657375336, 2.9382524490356445, 1.5329049825668335, 1.9779024124145508, 3.8091957569122314, 0.28434398770332336, 4.8434062004089355, 5.968311309814453, 6.084220886230469, 7.434114933013916, 7.726017951965332, 4.4573140144348145]
colour: [ORANGE, ORANGE, BLUE, YELLOW, BLUE, YELLOW, BLUE, BLUE, YELLOW, BLUE, YELLOW, BLUE,
  YELLOW, YELLOW, BLUE, BLUE, BLUE, YELLOW, YELLOW, YELLOW, YELLOW, YELLOW, YELLOW,
  YELLOW, YELLOW, YELLOW, BLUE, BLUE, YELLOW, BLUE]
frame_id: ''
---
header: 
  seq: 27
  stamp: 
    secs: 1663744476
    nsecs: 330877244
  frame_id: "/map"
x: [0.0, 0.0, 1.9310096502304077, 3.334218740463257, 3.2852120399475098, 1.8795366287231445, 1.073386311531067, 5.883209705352783, 5.779142379760742, 9.100351333618164, 8.751004219055176, 11.327714920043945, 10.619626998901367, 11.803092956542969, 10.355161666870117, 7.350165843963623, 12.514436721801758, 12.844015121459961, 14.020792961120605, 13.946118354797363, 13.986109733581543, 15.059758186340332, 15.420171737670898, 15.04794692993164, 14.958133697509766, 14.999690055847168, 12.818276405334473, 13.046455383300781, 15.475043296813965, 12.344382286071777, 12.314643859863281]
y: [1.5, -1.5, 0.8560818433761597, -0.7834198474884033, 0.906613826751709, -0.8090403079986572, 1.4931946992874146, 0.885968804359436, -0.9248017072677612, 1.0395430326461792, -1.1391493082046509, 1.0065430402755737, -1.158833384513855, -0.9613851308822632, 0.7352806925773621, 1.685702919960022, 1.397255778312683, -1.024353265762329, 0.23623667657375336, 2.9382524490356445, 1.5329049825668335, 1.9779024124145508, 3.8091957569122314, 0.28434398770332336, 4.8434062004089355, 5.968311309814453, 6.084220886230469, 7.434114933013916, 7.726017951965332, 4.4573140144348145, 8.891585350036621]
colour: [ORANGE, ORANGE, BLUE, YELLOW, BLUE, YELLOW, BLUE, BLUE, YELLOW, BLUE, YELLOW, BLUE,
  YELLOW, YELLOW, BLUE, BLUE, BLUE, YELLOW, YELLOW, YELLOW, YELLOW, YELLOW, YELLOW,
  YELLOW, YELLOW, YELLOW, BLUE, BLUE, YELLOW, BLUE, BLUE]
frame_id: ''
---
header: 
  seq: 28
  stamp: 
    secs: 1663744476
    nsecs: 330877244
  frame_id: "/map"
x: [0.0, 0.0, 1.9310096502304077, 3.334218740463257, 3.2852120399475098, 1.8795366287231445, 1.073386311531067, 5.883209705352783, 5.779142379760742, 9.100351333618164, 8.751004219055176, 11.327714920043945, 10.619626998901367, 11.803092956542969, 10.355161666870117, 7.350165843963623, 12.514436721801758, 12.844015121459961, 14.020792961120605, 13.946118354797363, 13.986109733581543, 15.059758186340332, 15.420171737670898, 15.04794692993164, 14.958133697509766, 14.999690055847168, 12.818276405334473, 13.046455383300781, 15.475043296813965, 12.344382286071777, 12.314643859863281, 14.917767524719238]
y: [1.5, -1.5, 0.8560818433761597, -0.7834198474884033, 0.906613826751709, -0.8090403079986572, 1.4931946992874146, 0.885968804359436, -0.9248017072677612, 1.0395430326461792, -1.1391493082046509, 1.0065430402755737, -1.158833384513855, -0.9613851308822632, 0.7352806925773621, 1.685702919960022, 1.397255778312683, -1.024353265762329, 0.23623667657375336, 2.9382524490356445, 1.5329049825668335, 1.9779024124145508, 3.8091957569122314, 0.28434398770332336, 4.8434062004089355, 5.968311309814453, 6.084220886230469, 7.434114933013916, 7.726017951965332, 4.4573140144348145, 8.891585350036621, 9.245121002197266]
colour: [ORANGE, ORANGE, BLUE, YELLOW, BLUE, YELLOW, BLUE, BLUE, YELLOW, BLUE, YELLOW, BLUE,
  YELLOW, YELLOW, BLUE, BLUE, BLUE, YELLOW, YELLOW, YELLOW, YELLOW, YELLOW, YELLOW,
  YELLOW, YELLOW, YELLOW, BLUE, BLUE, YELLOW, BLUE, BLUE, YELLOW]
frame_id: ''
---
header: 
  seq: 29
  stamp: 
    secs: 1663744477
    nsecs: 168360775
  frame_id: "/map"
x: [0.0, 0.0, 1.9310096502304077, 3.334218740463257, 3.2852120399475098, 1.8795366287231445, 1.073386311531067, 5.883209705352783, 5.779142379760742, 9.100351333618164, 8.751004219055176, 11.327714920043945, 10.619626998901367, 11.803092956542969, 10.355161666870117, 7.350165843963623, 12.514436721801758, 12.844015121459961, 14.020792961120605, 13.946118354797363, 13.986109733581543, 15.059758186340332, 15.420171737670898, 15.04794692993164, 14.958133697509766, 14.999690055847168, 12.818276405334473, 13.046455383300781, 15.475043296813965, 12.344382286071777, 12.314643859863281, 14.917767524719238, 14.028762817382812]
y: [1.5, -1.5, 0.8560818433761597, -0.7834198474884033, 0.906613826751709, -0.8090403079986572, 1.4931946992874146, 0.885968804359436, -0.9248017072677612, 1.0395430326461792, -1.1391493082046509, 1.0065430402755737, -1.158833384513855, -0.9613851308822632, 0.7352806925773621, 1.685702919960022, 1.397255778312683, -1.024353265762329, 0.23623667657375336, 2.9382524490356445, 1.5329049825668335, 1.9779024124145508, 3.8091957569122314, 0.28434398770332336, 4.8434062004089355, 5.968311309814453, 6.084220886230469, 7.434114933013916, 7.726017951965332, 4.4573140144348145, 8.891585350036621, 9.245121002197266, 8.183255195617676]
colour: [ORANGE, ORANGE, BLUE, YELLOW, BLUE, YELLOW, BLUE, BLUE, YELLOW, BLUE, YELLOW, BLUE,
  YELLOW, YELLOW, BLUE, BLUE, BLUE, YELLOW, YELLOW, YELLOW, YELLOW, YELLOW, YELLOW,
  YELLOW, YELLOW, YELLOW, BLUE, BLUE, YELLOW, BLUE, BLUE, YELLOW, YELLOW]
frame_id: ''
---
header: 
  seq: 30
  stamp: 
    secs: 1663744477
    nsecs: 770537036
  frame_id: "/map"
x: [0.0, 0.0, 1.9310096502304077, 3.334218740463257, 3.2852120399475098, 1.8795366287231445, 1.073386311531067, 5.883209705352783, 5.779142379760742, 9.100351333618164, 8.751004219055176, 11.327714920043945, 10.619626998901367, 11.803092956542969, 10.355161666870117, 7.350165843963623, 12.514436721801758, 12.844015121459961, 14.020792961120605, 13.946118354797363, 13.986109733581543, 15.059758186340332, 15.420171737670898, 15.04794692993164, 14.958133697509766, 14.999690055847168, 12.818276405334473, 13.046455383300781, 15.475043296813965, 12.344382286071777, 12.314643859863281, 14.917767524719238, 14.028762817382812, 13.320891380310059]
y: [1.5, -1.5, 0.8560818433761597, -0.7834198474884033, 0.906613826751709, -0.8090403079986572, 1.4931946992874146, 0.885968804359436, -0.9248017072677612, 1.0395430326461792, -1.1391493082046509, 1.0065430402755737, -1.158833384513855, -0.9613851308822632, 0.7352806925773621, 1.685702919960022, 1.397255778312683, -1.024353265762329, 0.23623667657375336, 2.9382524490356445, 1.5329049825668335, 1.9779024124145508, 3.8091957569122314, 0.28434398770332336, 4.8434062004089355, 5.968311309814453, 6.084220886230469, 7.434114933013916, 7.726017951965332, 4.4573140144348145, 8.891585350036621, 9.245121002197266, 8.183255195617676, 9.310755729675293]
colour: [ORANGE, ORANGE, BLUE, YELLOW, BLUE, YELLOW, BLUE, BLUE, YELLOW, BLUE, YELLOW, BLUE,
  YELLOW, YELLOW, BLUE, BLUE, BLUE, YELLOW, YELLOW, YELLOW, YELLOW, YELLOW, YELLOW,
  YELLOW, YELLOW, YELLOW, BLUE, BLUE, YELLOW, BLUE, BLUE, YELLOW, YELLOW, YELLOW]
frame_id: ''
---
header: 
  seq: 31
  stamp: 
    secs: 1663744479
    nsecs: 889906757
  frame_id: "/map"
x: [0.0, 0.0, 1.9310096502304077, 3.334218740463257, 3.2852120399475098, 1.8795366287231445, 1.073386311531067, 5.883209705352783, 5.779142379760742, 9.100351333618164, 8.751004219055176, 11.327714920043945, 10.619626998901367, 11.803092956542969, 10.355161666870117, 7.350165843963623, 12.514436721801758, 12.844015121459961, 14.020792961120605, 13.946118354797363, 13.986109733581543, 15.059758186340332, 15.420171737670898, 15.04794692993164, 14.958133697509766, 14.999690055847168, 12.818276405334473, 13.046455383300781, 15.475043296813965, 12.344382286071777, 12.314643859863281, 14.917767524719238, 14.028762817382812, 13.320891380310059, 13.082696914672852]
y: [1.5, -1.5, 0.8560818433761597, -0.7834198474884033, 0.906613826751709, -0.8090403079986572, 1.4931946992874146, 0.885968804359436, -0.9248017072677612, 1.0395430326461792, -1.1391493082046509, 1.0065430402755737, -1.158833384513855, -0.9613851308822632, 0.7352806925773621, 1.685702919960022, 1.397255778312683, -1.024353265762329, 0.23623667657375336, 2.9382524490356445, 1.5329049825668335, 1.9779024124145508, 3.8091957569122314, 0.28434398770332336, 4.8434062004089355, 5.968311309814453, 6.084220886230469, 7.434114933013916, 7.726017951965332, 4.4573140144348145, 8.891585350036621, 9.245121002197266, 8.183255195617676, 9.310755729675293, 10.498210906982422]
colour: [ORANGE, ORANGE, BLUE, YELLOW, BLUE, YELLOW, BLUE, BLUE, YELLOW, BLUE, YELLOW, BLUE,
  YELLOW, YELLOW, BLUE, BLUE, BLUE, YELLOW, YELLOW, YELLOW, YELLOW, YELLOW, YELLOW,
  YELLOW, YELLOW, YELLOW, BLUE, BLUE, YELLOW, BLUE, BLUE, YELLOW, YELLOW, YELLOW,
  YELLOW]
frame_id: ''
---
header: 
  seq: 32
  stamp: 
    secs: 1663744480
    nsecs: 567673983
  frame_id: "/map"
x: [0.0, 0.0, 1.9310096502304077, 3.334218740463257, 3.2852120399475098, 1.8795366287231445, 1.073386311531067, 5.883209705352783, 5.779142379760742, 9.100351333618164, 8.751004219055176, 11.327714920043945, 10.619626998901367, 11.803092956542969, 10.355161666870117, 7.350165843963623, 12.514436721801758, 12.844015121459961, 14.020792961120605, 13.946118354797363, 13.986109733581543, 15.059758186340332, 15.420171737670898, 15.04794692993164, 14.958133697509766, 14.999690055847168, 12.818276405334473, 13.046455383300781, 15.475043296813965, 12.344382286071777, 12.314643859863281, 14.917767524719238, 14.028762817382812, 13.320891380310059, 13.082696914672852, 11.632502555847168]
y: [1.5, -1.5, 0.8560818433761597, -0.7834198474884033, 0.906613826751709, -0.8090403079986572, 1.4931946992874146, 0.885968804359436, -0.9248017072677612, 1.0395430326461792, -1.1391493082046509, 1.0065430402755737, -1.158833384513855, -0.9613851308822632, 0.7352806925773621, 1.685702919960022, 1.397255778312683, -1.024353265762329, 0.23623667657375336, 2.9382524490356445, 1.5329049825668335, 1.9779024124145508, 3.8091957569122314, 0.28434398770332336, 4.8434062004089355, 5.968311309814453, 6.084220886230469, 7.434114933013916, 7.726017951965332, 4.4573140144348145, 8.891585350036621, 9.245121002197266, 8.183255195617676, 9.310755729675293, 10.498210906982422, 9.825043678283691]
colour: [ORANGE, ORANGE, BLUE, YELLOW, BLUE, YELLOW, BLUE, BLUE, YELLOW, BLUE, YELLOW, BLUE,
  YELLOW, YELLOW, BLUE, BLUE, BLUE, YELLOW, YELLOW, YELLOW, YELLOW, YELLOW, YELLOW,
  YELLOW, YELLOW, YELLOW, BLUE, BLUE, YELLOW, BLUE, BLUE, YELLOW, YELLOW, YELLOW,
  YELLOW, BLUE]
frame_id: ''
---
header: 
  seq: 33
  stamp: 
    secs: 1663744480
    nsecs: 969973597
  frame_id: "/map"
x: [0.0, 0.0, 1.9310096502304077, 3.334218740463257, 3.2852120399475098, 1.8795366287231445, 1.073386311531067, 5.883209705352783, 5.779142379760742, 9.100351333618164, 8.751004219055176, 11.327714920043945, 10.619626998901367, 11.803092956542969, 10.355161666870117, 7.350165843963623, 12.514436721801758, 12.844015121459961, 14.020792961120605, 13.946118354797363, 13.986109733581543, 15.059758186340332, 15.420171737670898, 15.04794692993164, 14.958133697509766, 14.999690055847168, 12.818276405334473, 13.046455383300781, 15.475043296813965, 12.344382286071777, 12.314643859863281, 14.917767524719238, 14.028762817382812, 13.320891380310059, 13.082696914672852, 11.632502555847168, 14.081331253051758]
y: [1.5, -1.5, 0.8560818433761597, -0.7834198474884033, 0.906613826751709, -0.8090403079986572, 1.4931946992874146, 0.885968804359436, -0.9248017072677612, 1.0395430326461792, -1.1391493082046509, 1.0065430402755737, -1.158833384513855, -0.9613851308822632, 0.7352806925773621, 1.685702919960022, 1.397255778312683, -1.024353265762329, 0.23623667657375336, 2.9382524490356445, 1.5329049825668335, 1.9779024124145508, 3.8091957569122314, 0.28434398770332336, 4.8434062004089355, 5.968311309814453, 6.084220886230469, 7.434114933013916, 7.726017951965332, 4.4573140144348145, 8.891585350036621, 9.245121002197266, 8.183255195617676, 9.310755729675293, 10.498210906982422, 9.825043678283691, 10.222833633422852]
colour: [ORANGE, ORANGE, BLUE, YELLOW, BLUE, YELLOW, BLUE, BLUE, YELLOW, BLUE, YELLOW, BLUE,
  YELLOW, YELLOW, BLUE, BLUE, BLUE, YELLOW, YELLOW, YELLOW, YELLOW, YELLOW, YELLOW,
  YELLOW, YELLOW, YELLOW, BLUE, BLUE, YELLOW, BLUE, BLUE, YELLOW, YELLOW, YELLOW,
  YELLOW, BLUE, YELLOW]
frame_id: ''
---
header: 
  seq: 34
  stamp: 
    secs: 1663744483
    nsecs: 362869172
  frame_id: "/map"
x: [0.0, 0.0, 1.9310096502304077, 3.334218740463257, 3.2852120399475098, 1.8795366287231445, 1.073386311531067, 5.883209705352783, 5.779142379760742, 9.100351333618164, 8.751004219055176, 11.327714920043945, 10.619626998901367, 11.803092956542969, 10.355161666870117, 7.350165843963623, 12.514436721801758, 12.844015121459961, 14.020792961120605, 13.946118354797363, 13.986109733581543, 15.059758186340332, 15.420171737670898, 15.04794692993164, 14.958133697509766, 14.999690055847168, 12.818276405334473, 13.046455383300781, 15.475043296813965, 12.344382286071777, 12.314643859863281, 14.917767524719238, 14.028762817382812, 13.320891380310059, 13.082696914672852, 11.632502555847168, 14.081331253051758, 12.716835975646973]
y: [1.5, -1.5, 0.8560818433761597, -0.7834198474884033, 0.906613826751709, -0.8090403079986572, 1.4931946992874146, 0.885968804359436, -0.9248017072677612, 1.0395430326461792, -1.1391493082046509, 1.0065430402755737, -1.158833384513855, -0.9613851308822632, 0.7352806925773621, 1.685702919960022, 1.397255778312683, -1.024353265762329, 0.23623667657375336, 2.9382524490356445, 1.5329049825668335, 1.9779024124145508, 3.8091957569122314, 0.28434398770332336, 4.8434062004089355, 5.968311309814453, 6.084220886230469, 7.434114933013916, 7.726017951965332, 4.4573140144348145, 8.891585350036621, 9.245121002197266, 8.183255195617676, 9.310755729675293, 10.498210906982422, 9.825043678283691, 10.222833633422852, 11.778667449951172]
colour: [ORANGE, ORANGE, BLUE, YELLOW, BLUE, YELLOW, BLUE, BLUE, YELLOW, BLUE, YELLOW, BLUE,
  YELLOW, YELLOW, BLUE, BLUE, BLUE, YELLOW, YELLOW, YELLOW, YELLOW, YELLOW, YELLOW,
  YELLOW, YELLOW, YELLOW, BLUE, BLUE, YELLOW, BLUE, BLUE, YELLOW, YELLOW, YELLOW,
  YELLOW, BLUE, YELLOW, YELLOW]
frame_id: ''
---
header: 
  seq: 35
  stamp: 
    secs: 1663744485
    nsecs: 365968363
  frame_id: "/map"
x: [0.0, 0.0, 1.9310096502304077, 3.334218740463257, 3.2852120399475098, 1.8795366287231445, 1.073386311531067, 5.883209705352783, 5.779142379760742, 9.100351333618164, 8.751004219055176, 11.327714920043945, 10.619626998901367, 11.803092956542969, 10.355161666870117, 7.350165843963623, 12.514436721801758, 12.844015121459961, 14.020792961120605, 13.946118354797363, 13.986109733581543, 15.059758186340332, 15.420171737670898, 15.04794692993164, 14.958133697509766, 14.999690055847168, 12.818276405334473, 13.046455383300781, 15.475043296813965, 12.344382286071777, 12.314643859863281, 14.917767524719238, 14.028762817382812, 13.320891380310059, 13.082696914672852, 11.632502555847168, 14.081331253051758, 12.716835975646973, 9.602899551391602]
y: [1.5, -1.5, 0.8560818433761597, -0.7834198474884033, 0.906613826751709, -0.8090403079986572, 1.4931946992874146, 0.885968804359436, -0.9248017072677612, 1.0395430326461792, -1.1391493082046509, 1.0065430402755737, -1.158833384513855, -0.9613851308822632, 0.7352806925773621, 1.685702919960022, 1.397255778312683, -1.024353265762329, 0.23623667657375336, 2.9382524490356445, 1.5329049825668335, 1.9779024124145508, 3.8091957569122314, 0.28434398770332336, 4.8434062004089355, 5.968311309814453, 6.084220886230469, 7.434114933013916, 7.726017951965332, 4.4573140144348145, 8.891585350036621, 9.245121002197266, 8.183255195617676, 9.310755729675293, 10.498210906982422, 9.825043678283691, 10.222833633422852, 11.778667449951172, 11.743815422058105]
colour: [ORANGE, ORANGE, BLUE, YELLOW, BLUE, YELLOW, BLUE, BLUE, YELLOW, BLUE, YELLOW, BLUE,
  YELLOW, YELLOW, BLUE, BLUE, BLUE, YELLOW, YELLOW, YELLOW, YELLOW, YELLOW, YELLOW,
  YELLOW, YELLOW, YELLOW, BLUE, BLUE, YELLOW, BLUE, BLUE, YELLOW, YELLOW, YELLOW,
  YELLOW, BLUE, YELLOW, YELLOW, BLUE]
frame_id: ''
---
header: 
  seq: 36
  stamp: 
    secs: 1663744486
    nsecs: 564639076
  frame_id: "/map"
x: [0.0, 0.0, 1.9310096502304077, 3.334218740463257, 3.2852120399475098, 1.8795366287231445, 1.073386311531067, 5.883209705352783, 5.779142379760742, 9.100351333618164, 8.751004219055176, 11.327714920043945, 10.619626998901367, 11.803092956542969, 10.355161666870117, 7.350165843963623, 12.514436721801758, 12.844015121459961, 14.020792961120605, 13.946118354797363, 13.986109733581543, 15.059758186340332, 15.420171737670898, 15.04794692993164, 14.958133697509766, 14.999690055847168, 12.818276405334473, 13.046455383300781, 15.475043296813965, 12.344382286071777, 12.314643859863281, 14.917767524719238, 14.028762817382812, 13.320891380310059, 13.082696914672852, 11.632502555847168, 14.081331253051758, 12.716835975646973, 9.602899551391602, 11.14859676361084]
y: [1.5, -1.5, 0.8560818433761597, -0.7834198474884033, 0.906613826751709, -0.8090403079986572, 1.4931946992874146, 0.885968804359436, -0.9248017072677612, 1.0395430326461792, -1.1391493082046509, 1.0065430402755737, -1.158833384513855, -0.9613851308822632, 0.7352806925773621, 1.685702919960022, 1.397255778312683, -1.024353265762329, 0.23623667657375336, 2.9382524490356445, 1.5329049825668335, 1.9779024124145508, 3.8091957569122314, 0.28434398770332336, 4.8434062004089355, 5.968311309814453, 6.084220886230469, 7.434114933013916, 7.726017951965332, 4.4573140144348145, 8.891585350036621, 9.245121002197266, 8.183255195617676, 9.310755729675293, 10.498210906982422, 9.825043678283691, 10.222833633422852, 11.778667449951172, 11.743815422058105, 10.72572135925293]
colour: [ORANGE, ORANGE, BLUE, YELLOW, BLUE, YELLOW, BLUE, BLUE, YELLOW, BLUE, YELLOW, BLUE,
  YELLOW, YELLOW, BLUE, BLUE, BLUE, YELLOW, YELLOW, YELLOW, YELLOW, YELLOW, YELLOW,
  YELLOW, YELLOW, YELLOW, BLUE, BLUE, YELLOW, BLUE, BLUE, YELLOW, YELLOW, YELLOW,
  YELLOW, BLUE, YELLOW, YELLOW, BLUE, BLUE]
frame_id: ''
---
header: 
  seq: 37
  stamp: 
    secs: 1663744488
    nsecs:  92408294
  frame_id: "/map"
x: [0.0, 0.0, 1.9310096502304077, 3.334218740463257, 3.2852120399475098, 1.8795366287231445, 1.073386311531067, 5.883209705352783, 5.779142379760742, 9.100351333618164, 8.751004219055176, 11.327714920043945, 10.619626998901367, 11.803092956542969, 10.355161666870117, 7.350165843963623, 12.514436721801758, 12.844015121459961, 14.020792961120605, 13.946118354797363, 13.986109733581543, 15.059758186340332, 15.420171737670898, 15.04794692993164, 14.958133697509766, 14.999690055847168, 12.818276405334473, 13.046455383300781, 15.475043296813965, 12.344382286071777, 12.314643859863281, 14.917767524719238, 14.028762817382812, 13.320891380310059, 13.082696914672852, 11.632502555847168, 14.081331253051758, 12.716835975646973, 9.602899551391602, 11.14859676361084, 11.56727123260498]
y: [1.5, -1.5, 0.8560818433761597, -0.7834198474884033, 0.906613826751709, -0.8090403079986572, 1.4931946992874146, 0.885968804359436, -0.9248017072677612, 1.0395430326461792, -1.1391493082046509, 1.0065430402755737, -1.158833384513855, -0.9613851308822632, 0.7352806925773621, 1.685702919960022, 1.397255778312683, -1.024353265762329, 0.23623667657375336, 2.9382524490356445, 1.5329049825668335, 1.9779024124145508, 3.8091957569122314, 0.28434398770332336, 4.8434062004089355, 5.968311309814453, 6.084220886230469, 7.434114933013916, 7.726017951965332, 4.4573140144348145, 8.891585350036621, 9.245121002197266, 8.183255195617676, 9.310755729675293, 10.498210906982422, 9.825043678283691, 10.222833633422852, 11.778667449951172, 11.743815422058105, 10.72572135925293, 12.951640129089355]
colour: [ORANGE, ORANGE, BLUE, YELLOW, BLUE, YELLOW, BLUE, BLUE, YELLOW, BLUE, YELLOW, BLUE,
  YELLOW, YELLOW, BLUE, BLUE, BLUE, YELLOW, YELLOW, YELLOW, YELLOW, YELLOW, YELLOW,
  YELLOW, YELLOW, YELLOW, BLUE, BLUE, YELLOW, BLUE, BLUE, YELLOW, YELLOW, YELLOW,
  YELLOW, BLUE, YELLOW, YELLOW, BLUE, BLUE, YELLOW]
frame_id: ''
---
header: 
  seq: 38
  stamp: 
    secs: 1663744491
    nsecs: 760377604
  frame_id: "/map"
x: [0.0, 0.0, 1.9310096502304077, 3.334218740463257, 3.2852120399475098, 1.8795366287231445, 1.073386311531067, 5.883209705352783, 5.779142379760742, 9.100351333618164, 8.751004219055176, 11.327714920043945, 10.619626998901367, 11.803092956542969, 10.355161666870117, 7.350165843963623, 12.514436721801758, 12.844015121459961, 14.020792961120605, 13.946118354797363, 13.986109733581543, 15.059758186340332, 15.420171737670898, 15.04794692993164, 14.958133697509766, 14.999690055847168, 12.818276405334473, 13.046455383300781, 15.475043296813965, 12.344382286071777, 12.314643859863281, 14.917767524719238, 14.028762817382812, 13.320891380310059, 13.082696914672852, 11.632502555847168, 14.081331253051758, 12.716835975646973, 9.602899551391602, 11.14859676361084, 11.56727123260498, 10.428536415100098]
y: [1.5, -1.5, 0.8560818433761597, -0.7834198474884033, 0.906613826751709, -0.8090403079986572, 1.4931946992874146, 0.885968804359436, -0.9248017072677612, 1.0395430326461792, -1.1391493082046509, 1.0065430402755737, -1.158833384513855, -0.9613851308822632, 0.7352806925773621, 1.685702919960022, 1.397255778312683, -1.024353265762329, 0.23623667657375336, 2.9382524490356445, 1.5329049825668335, 1.9779024124145508, 3.8091957569122314, 0.28434398770332336, 4.8434062004089355, 5.968311309814453, 6.084220886230469, 7.434114933013916, 7.726017951965332, 4.4573140144348145, 8.891585350036621, 9.245121002197266, 8.183255195617676, 9.310755729675293, 10.498210906982422, 9.825043678283691, 10.222833633422852, 11.778667449951172, 11.743815422058105, 10.72572135925293, 12.951640129089355, 14.132843017578125]
colour: [ORANGE, ORANGE, BLUE, YELLOW, BLUE, YELLOW, BLUE, BLUE, YELLOW, BLUE, YELLOW, BLUE,
  YELLOW, YELLOW, BLUE, BLUE, BLUE, YELLOW, YELLOW, YELLOW, YELLOW, YELLOW, YELLOW,
  YELLOW, YELLOW, YELLOW, BLUE, BLUE, YELLOW, BLUE, BLUE, YELLOW, YELLOW, YELLOW,
  YELLOW, BLUE, YELLOW, YELLOW, BLUE, BLUE, YELLOW, YELLOW]
frame_id: ''
---
header: 
  seq: 39
  stamp: 
    secs: 1663744492
    nsecs: 167654360
  frame_id: "/map"
x: [0.0, 0.0, 1.9310096502304077, 3.334218740463257, 3.2852120399475098, 1.8795366287231445, 1.073386311531067, 5.883209705352783, 5.779142379760742, 9.100351333618164, 8.751004219055176, 11.327714920043945, 10.619626998901367, 11.803092956542969, 10.355161666870117, 7.350165843963623, 12.514436721801758, 12.844015121459961, 14.020792961120605, 13.946118354797363, 13.986109733581543, 15.059758186340332, 15.420171737670898, 15.04794692993164, 14.958133697509766, 14.999690055847168, 12.818276405334473, 13.046455383300781, 15.475043296813965, 12.344382286071777, 12.314643859863281, 14.917767524719238, 14.028762817382812, 13.320891380310059, 13.082696914672852, 11.632502555847168, 14.081331253051758, 12.716835975646973, 9.602899551391602, 11.14859676361084, 11.56727123260498, 10.428536415100098, 8.685869216918945]
y: [1.5, -1.5, 0.8560818433761597, -0.7834198474884033, 0.906613826751709, -0.8090403079986572, 1.4931946992874146, 0.885968804359436, -0.9248017072677612, 1.0395430326461792, -1.1391493082046509, 1.0065430402755737, -1.158833384513855, -0.9613851308822632, 0.7352806925773621, 1.685702919960022, 1.397255778312683, -1.024353265762329, 0.23623667657375336, 2.9382524490356445, 1.5329049825668335, 1.9779024124145508, 3.8091957569122314, 0.28434398770332336, 4.8434062004089355, 5.968311309814453, 6.084220886230469, 7.434114933013916, 7.726017951965332, 4.4573140144348145, 8.891585350036621, 9.245121002197266, 8.183255195617676, 9.310755729675293, 10.498210906982422, 9.825043678283691, 10.222833633422852, 11.778667449951172, 11.743815422058105, 10.72572135925293, 12.951640129089355, 14.132843017578125, 13.280332565307617]
colour: [ORANGE, ORANGE, BLUE, YELLOW, BLUE, YELLOW, BLUE, BLUE, YELLOW, BLUE, YELLOW, BLUE,
  YELLOW, YELLOW, BLUE, BLUE, BLUE, YELLOW, YELLOW, YELLOW, YELLOW, YELLOW, YELLOW,
  YELLOW, YELLOW, YELLOW, BLUE, BLUE, YELLOW, BLUE, BLUE, YELLOW, YELLOW, YELLOW,
  YELLOW, BLUE, YELLOW, YELLOW, BLUE, BLUE, YELLOW, YELLOW, BLUE]
frame_id: ''
---
header: 
  seq: 40
  stamp: 
    secs: 1663744496
    nsecs: 733218642
  frame_id: "/map"
x: [0.0, 0.0, 1.9310096502304077, 3.334218740463257, 3.2852120399475098, 1.8795366287231445, 1.073386311531067, 5.883209705352783, 5.779142379760742, 9.100351333618164, 8.751004219055176, 11.327714920043945, 10.619626998901367, 11.803092956542969, 10.355161666870117, 7.350165843963623, 12.514436721801758, 12.844015121459961, 14.020792961120605, 13.946118354797363, 13.986109733581543, 15.059758186340332, 15.420171737670898, 15.04794692993164, 14.958133697509766, 14.999690055847168, 12.818276405334473, 13.046455383300781, 15.475043296813965, 12.344382286071777, 12.314643859863281, 14.917767524719238, 14.028762817382812, 13.320891380310059, 13.082696914672852, 11.632502555847168, 14.081331253051758, 12.716835975646973, 9.602899551391602, 11.14859676361084, 11.56727123260498, 10.428536415100098, 8.685869216918945, 12.579689025878906]
y: [1.5, -1.5, 0.8560818433761597, -0.7834198474884033, 0.906613826751709, -0.8090403079986572, 1.4931946992874146, 0.885968804359436, -0.9248017072677612, 1.0395430326461792, -1.1391493082046509, 1.0065430402755737, -1.158833384513855, -0.9613851308822632, 0.7352806925773621, 1.685702919960022, 1.397255778312683, -1.024353265762329, 0.23623667657375336, 2.9382524490356445, 1.5329049825668335, 1.9779024124145508, 3.8091957569122314, 0.28434398770332336, 4.8434062004089355, 5.968311309814453, 6.084220886230469, 7.434114933013916, 7.726017951965332, 4.4573140144348145, 8.891585350036621, 9.245121002197266, 8.183255195617676, 9.310755729675293, 10.498210906982422, 9.825043678283691, 10.222833633422852, 11.778667449951172, 11.743815422058105, 10.72572135925293, 12.951640129089355, 14.132843017578125, 13.280332565307617, 12.852057456970215]
colour: [ORANGE, ORANGE, BLUE, YELLOW, BLUE, YELLOW, BLUE, BLUE, YELLOW, BLUE, YELLOW, BLUE,
  YELLOW, YELLOW, BLUE, BLUE, BLUE, YELLOW, YELLOW, YELLOW, YELLOW, YELLOW, YELLOW,
  YELLOW, YELLOW, YELLOW, BLUE, BLUE, YELLOW, BLUE, BLUE, YELLOW, YELLOW, YELLOW,
  YELLOW, BLUE, YELLOW, YELLOW, BLUE, BLUE, YELLOW, YELLOW, BLUE, YELLOW]
frame_id: ''
---
header: 
  seq: 41
  stamp: 
    secs: 1663744500
    nsecs: 163081146
  frame_id: "/map"
x: [0.0, 0.0, 1.9310096502304077, 3.334218740463257, 3.2852120399475098, 1.8795366287231445, 1.073386311531067, 5.883209705352783, 5.779142379760742, 9.100351333618164, 8.751004219055176, 11.327714920043945, 10.619626998901367, 11.803092956542969, 10.355161666870117, 7.350165843963623, 12.514436721801758, 12.844015121459961, 14.020792961120605, 13.946118354797363, 13.986109733581543, 15.059758186340332, 15.420171737670898, 15.04794692993164, 14.958133697509766, 14.999690055847168, 12.818276405334473, 13.046455383300781, 15.475043296813965, 12.344382286071777, 12.314643859863281, 14.917767524719238, 14.028762817382812, 13.320891380310059, 13.082696914672852, 11.632502555847168, 14.081331253051758, 12.716835975646973, 9.602899551391602, 11.14859676361084, 11.56727123260498, 10.428536415100098, 8.685869216918945, 12.579689025878906, 9.819671630859375]
y: [1.5, -1.5, 0.8560818433761597, -0.7834198474884033, 0.906613826751709, -0.8090403079986572, 1.4931946992874146, 0.885968804359436, -0.9248017072677612, 1.0395430326461792, -1.1391493082046509, 1.0065430402755737, -1.158833384513855, -0.9613851308822632, 0.7352806925773621, 1.685702919960022, 1.397255778312683, -1.024353265762329, 0.23623667657375336, 2.9382524490356445, 1.5329049825668335, 1.9779024124145508, 3.8091957569122314, 0.28434398770332336, 4.8434062004089355, 5.968311309814453, 6.084220886230469, 7.434114933013916, 7.726017951965332, 4.4573140144348145, 8.891585350036621, 9.245121002197266, 8.183255195617676, 9.310755729675293, 10.498210906982422, 9.825043678283691, 10.222833633422852, 11.778667449951172, 11.743815422058105, 10.72572135925293, 12.951640129089355, 14.132843017578125, 13.280332565307617, 12.852057456970215, 15.128748893737793]
colour: [ORANGE, ORANGE, BLUE, YELLOW, BLUE, YELLOW, BLUE, BLUE, YELLOW, BLUE, YELLOW, BLUE,
  YELLOW, YELLOW, BLUE, BLUE, BLUE, YELLOW, YELLOW, YELLOW, YELLOW, YELLOW, YELLOW,
  YELLOW, YELLOW, YELLOW, BLUE, BLUE, YELLOW, BLUE, BLUE, YELLOW, YELLOW, YELLOW,
  YELLOW, BLUE, YELLOW, YELLOW, BLUE, BLUE, YELLOW, YELLOW, BLUE, YELLOW, YELLOW]
frame_id: ''
---
header: 
  seq: 42
  stamp: 
    secs: 1663744501
    nsecs: 127711378
  frame_id: "/map"
x: [0.0, 0.0, 1.9310096502304077, 3.334218740463257, 3.2852120399475098, 1.8795366287231445, 1.073386311531067, 5.883209705352783, 5.779142379760742, 9.100351333618164, 8.751004219055176, 11.327714920043945, 10.619626998901367, 11.803092956542969, 10.355161666870117, 7.350165843963623, 12.514436721801758, 12.844015121459961, 14.020792961120605, 13.946118354797363, 13.986109733581543, 15.059758186340332, 15.420171737670898, 15.04794692993164, 14.958133697509766, 14.999690055847168, 12.818276405334473, 13.046455383300781, 15.475043296813965, 12.344382286071777, 12.314643859863281, 14.917767524719238, 14.028762817382812, 13.320891380310059, 13.082696914672852, 11.632502555847168, 14.081331253051758, 12.716835975646973, 9.602899551391602, 11.14859676361084, 11.56727123260498, 10.428536415100098, 8.685869216918945, 12.579689025878906, 9.819671630859375, 6.593353748321533]
y: [1.5, -1.5, 0.8560818433761597, -0.7834198474884033, 0.906613826751709, -0.8090403079986572, 1.4931946992874146, 0.885968804359436, -0.9248017072677612, 1.0395430326461792, -1.1391493082046509, 1.0065430402755737, -1.158833384513855, -0.9613851308822632, 0.7352806925773621, 1.685702919960022, 1.397255778312683, -1.024353265762329, 0.23623667657375336, 2.9382524490356445, 1.5329049825668335, 1.9779024124145508, 3.8091957569122314, 0.28434398770332336, 4.8434062004089355, 5.968311309814453, 6.084220886230469, 7.434114933013916, 7.726017951965332, 4.4573140144348145, 8.891585350036621, 9.245121002197266, 8.183255195617676, 9.310755729675293, 10.498210906982422, 9.825043678283691, 10.222833633422852, 11.778667449951172, 11.743815422058105, 10.72572135925293, 12.951640129089355, 14.132843017578125, 13.280332565307617, 12.852057456970215, 15.128748893737793, 15.680604934692383]
colour: [ORANGE, ORANGE, BLUE, YELLOW, BLUE, YELLOW, BLUE, BLUE, YELLOW, BLUE, YELLOW, BLUE,
  YELLOW, YELLOW, BLUE, BLUE, BLUE, YELLOW, YELLOW, YELLOW, YELLOW, YELLOW, YELLOW,
  YELLOW, YELLOW, YELLOW, BLUE, BLUE, YELLOW, BLUE, BLUE, YELLOW, YELLOW, YELLOW,
  YELLOW, BLUE, YELLOW, YELLOW, BLUE, BLUE, YELLOW, YELLOW, BLUE, YELLOW, YELLOW,
  BLUE]
frame_id: ''
---
header: 
  seq: 43
  stamp: 
    secs: 1663744501
    nsecs: 127711378
  frame_id: "/map"
x: [0.0, 0.0, 1.9310096502304077, 3.334218740463257, 3.2852120399475098, 1.8795366287231445, 1.073386311531067, 5.883209705352783, 5.779142379760742, 9.100351333618164, 8.751004219055176, 11.327714920043945, 10.619626998901367, 11.803092956542969, 10.355161666870117, 7.350165843963623, 12.514436721801758, 12.844015121459961, 14.020792961120605, 13.946118354797363, 13.986109733581543, 15.059758186340332, 15.420171737670898, 15.04794692993164, 14.958133697509766, 14.999690055847168, 12.818276405334473, 13.046455383300781, 15.475043296813965, 12.344382286071777, 12.314643859863281, 14.917767524719238, 14.028762817382812, 13.320891380310059, 13.082696914672852, 11.632502555847168, 14.081331253051758, 12.716835975646973, 9.602899551391602, 11.14859676361084, 11.56727123260498, 10.428536415100098, 8.685869216918945, 12.579689025878906, 9.819671630859375, 6.593353748321533, 8.579774856567383]
y: [1.5, -1.5, 0.8560818433761597, -0.7834198474884033, 0.906613826751709, -0.8090403079986572, 1.4931946992874146, 0.885968804359436, -0.9248017072677612, 1.0395430326461792, -1.1391493082046509, 1.0065430402755737, -1.158833384513855, -0.9613851308822632, 0.7352806925773621, 1.685702919960022, 1.397255778312683, -1.024353265762329, 0.23623667657375336, 2.9382524490356445, 1.5329049825668335, 1.9779024124145508, 3.8091957569122314, 0.28434398770332336, 4.8434062004089355, 5.968311309814453, 6.084220886230469, 7.434114933013916, 7.726017951965332, 4.4573140144348145, 8.891585350036621, 9.245121002197266, 8.183255195617676, 9.310755729675293, 10.498210906982422, 9.825043678283691, 10.222833633422852, 11.778667449951172, 11.743815422058105, 10.72572135925293, 12.951640129089355, 14.132843017578125, 13.280332565307617, 12.852057456970215, 15.128748893737793, 15.680604934692383, 17.237661361694336]
colour: [ORANGE, ORANGE, BLUE, YELLOW, BLUE, YELLOW, BLUE, BLUE, YELLOW, BLUE, YELLOW, BLUE,
  YELLOW, YELLOW, BLUE, BLUE, BLUE, YELLOW, YELLOW, YELLOW, YELLOW, YELLOW, YELLOW,
  YELLOW, YELLOW, YELLOW, BLUE, BLUE, YELLOW, BLUE, BLUE, YELLOW, YELLOW, YELLOW,
  YELLOW, BLUE, YELLOW, YELLOW, BLUE, BLUE, YELLOW, YELLOW, BLUE, YELLOW, YELLOW,
  BLUE, YELLOW]
frame_id: ''
---
header: 
  seq: 44
  stamp: 
    secs: 1663744505
    nsecs: 723187393
  frame_id: "/map"
x: [0.0, 0.0, 1.9310096502304077, 3.334218740463257, 3.2852120399475098, 1.8795366287231445, 1.073386311531067, 5.883209705352783, 5.779142379760742, 9.100351333618164, 8.751004219055176, 11.327714920043945, 10.619626998901367, 11.803092956542969, 10.355161666870117, 7.350165843963623, 12.514436721801758, 12.844015121459961, 14.020792961120605, 13.946118354797363, 13.986109733581543, 15.059758186340332, 15.420171737670898, 15.04794692993164, 14.958133697509766, 14.999690055847168, 12.818276405334473, 13.046455383300781, 15.475043296813965, 12.344382286071777, 12.314643859863281, 14.917767524719238, 14.028762817382812, 13.320891380310059, 13.082696914672852, 11.632502555847168, 14.081331253051758, 12.716835975646973, 9.602899551391602, 11.14859676361084, 11.56727123260498, 10.428536415100098, 8.685869216918945, 12.579689025878906, 9.819671630859375, 6.593353748321533, 8.579774856567383, 5.6128997802734375]
y: [1.5, -1.5, 0.8560818433761597, -0.7834198474884033, 0.906613826751709, -0.8090403079986572, 1.4931946992874146, 0.885968804359436, -0.9248017072677612, 1.0395430326461792, -1.1391493082046509, 1.0065430402755737, -1.158833384513855, -0.9613851308822632, 0.7352806925773621, 1.685702919960022, 1.397255778312683, -1.024353265762329, 0.23623667657375336, 2.9382524490356445, 1.5329049825668335, 1.9779024124145508, 3.8091957569122314, 0.28434398770332336, 4.8434062004089355, 5.968311309814453, 6.084220886230469, 7.434114933013916, 7.726017951965332, 4.4573140144348145, 8.891585350036621, 9.245121002197266, 8.183255195617676, 9.310755729675293, 10.498210906982422, 9.825043678283691, 10.222833633422852, 11.778667449951172, 11.743815422058105, 10.72572135925293, 12.951640129089355, 14.132843017578125, 13.280332565307617, 12.852057456970215, 15.128748893737793, 15.680604934692383, 17.237661361694336, 16.637426376342773]
colour: [ORANGE, ORANGE, BLUE, YELLOW, BLUE, YELLOW, BLUE, BLUE, YELLOW, BLUE, YELLOW, BLUE,
  YELLOW, YELLOW, BLUE, BLUE, BLUE, YELLOW, YELLOW, YELLOW, YELLOW, YELLOW, YELLOW,
  YELLOW, YELLOW, YELLOW, BLUE, BLUE, YELLOW, BLUE, BLUE, YELLOW, YELLOW, YELLOW,
  YELLOW, BLUE, YELLOW, YELLOW, BLUE, BLUE, YELLOW, YELLOW, BLUE, YELLOW, YELLOW,
  BLUE, YELLOW, BLUE]
frame_id: ''
---
header: 
  seq: 45
  stamp: 
    secs: 1663744506
    nsecs: 731797056
  frame_id: "/map"
x: [0.0, 0.0, 1.9310096502304077, 3.334218740463257, 3.2852120399475098, 1.8795366287231445, 1.073386311531067, 5.883209705352783, 5.779142379760742, 9.100351333618164, 8.751004219055176, 11.327714920043945, 10.619626998901367, 11.803092956542969, 10.355161666870117, 7.350165843963623, 12.514436721801758, 12.844015121459961, 14.020792961120605, 13.946118354797363, 13.986109733581543, 15.059758186340332, 15.420171737670898, 15.04794692993164, 14.958133697509766, 14.999690055847168, 12.818276405334473, 13.046455383300781, 15.475043296813965, 12.344382286071777, 12.314643859863281, 14.917767524719238, 14.028762817382812, 13.320891380310059, 13.082696914672852, 11.632502555847168, 14.081331253051758, 12.716835975646973, 9.602899551391602, 11.14859676361084, 11.56727123260498, 10.428536415100098, 8.685869216918945, 12.579689025878906, 9.819671630859375, 6.593353748321533, 8.579774856567383, 5.6128997802734375, 6.966894626617432]
y: [1.5, -1.5, 0.8560818433761597, -0.7834198474884033, 0.906613826751709, -0.8090403079986572, 1.4931946992874146, 0.885968804359436, -0.9248017072677612, 1.0395430326461792, -1.1391493082046509, 1.0065430402755737, -1.158833384513855, -0.9613851308822632, 0.7352806925773621, 1.685702919960022, 1.397255778312683, -1.024353265762329, 0.23623667657375336, 2.9382524490356445, 1.5329049825668335, 1.9779024124145508, 3.8091957569122314, 0.28434398770332336, 4.8434062004089355, 5.968311309814453, 6.084220886230469, 7.434114933013916, 7.726017951965332, 4.4573140144348145, 8.891585350036621, 9.245121002197266, 8.183255195617676, 9.310755729675293, 10.498210906982422, 9.825043678283691, 10.222833633422852, 11.778667449951172, 11.743815422058105, 10.72572135925293, 12.951640129089355, 14.132843017578125, 13.280332565307617, 12.852057456970215, 15.128748893737793, 15.680604934692383, 17.237661361694336, 16.637426376342773, 18.6900691986084]
colour: [ORANGE, ORANGE, BLUE, YELLOW, BLUE, YELLOW, BLUE, BLUE, YELLOW, BLUE, YELLOW, BLUE,
